name,status,recommended classification,mass,detection method,year fell or found,latitude,longitude
Aachen,Valid,L5,21.0,Fell,1880,50.775,6.08333
Aarhus,Valid,H6,720.0,Fell,1951,56.18333,10.23333
Abee,Valid,EH4,107000.0,Fell,1952,54.21667,-113.0
Acapulco,Valid,Acapulcoite,1914.0,Fell,1976,16.88333,-99.9
Achiras,Valid,L6,780.0,Fell,1902,-33.16667,-64.95
Adhi Kot,Valid,EH4,4239.0,Fell,1919,32.1,71.8
Adzhi-Bogdo (stone),Valid,LL3-6,910.0,Fell,1949,44.83333,95.16667
Agen,Valid,H5,30000.0,Fell,1814,44.21667,0.61667
Aguada,Valid,L6,1620.0,Fell,1930,-31.6,-65.23333
Aguila Blanca,Valid,L,1440.0,Fell,1920,-30.86667,-64.55
Aioun el Atrouss,Valid,Diogenite-pm,1000.0,Fell,1974,16.39806,-9.57028
Aïr,Valid,L6,24000.0,Fell,1925,19.08333,8.38333
Aire-sur-la-Lys,Valid,Unknown,,Fell,1769,50.66667,2.33333
Akaba,Valid,L6,779.0,Fell,1949,29.51667,35.05
Akbarpur,Valid,H4,1800.0,Fell,1838,29.71667,77.95
Akwanga,Valid,H,3000.0,Fell,1959,8.91667,8.43333
Akyumak,Valid,"Iron, IVA",50000.0,Fell,1981,39.91667,42.81667
Al Rais,Valid,CR2-an,160.0,Fell,1957,24.41667,39.51667
Al Zarnkh,Valid,LL5,700.0,Fell,2001,13.66033,28.96
Alais,Valid,CI1,6000.0,Fell,1806,44.11667,4.08333
Albareto,Valid,L/LL4,2000.0,Fell,1766,44.65,11.01667
Alberta,Valid,L,625.0,Fell,1949,2.0,22.66667
Alby sur Chéran,Valid,Eucrite-mmict,252.0,Fell,2002,45.82133,6.01533
Aldsworth,Valid,LL5,700.0,Fell,1835,51.78333,-1.78333
Aleppo,Valid,L6,3200.0,Fell,1873,36.23333,37.13333
Alessandria,Valid,H5,908.0,Fell,1860,44.88333,8.75
Alexandrovsky,Valid,H4,9251.0,Fell,1900,50.95,31.81667
Alfianello,Valid,L6,228000.0,Fell,1883,45.26667,10.15
Allegan,Valid,H5,32000.0,Fell,1899,42.53333,-85.88333
Allende,Valid,CV3,2000000.0,Fell,1969,26.96667,-105.31667
Almahata Sitta,Valid,Ureilite-an,3950.0,Fell,2008,20.74575,32.41275
Alta'ameem,Valid,LL5,6000.0,Fell,1977,35.27333,44.21556
Ambapur Nagla,Valid,H5,6400.0,Fell,1895,27.66667,78.25
Andhara,Valid,Stone-uncl,2700.0,Fell,1880,26.58333,85.56667
Andover,Valid,L6,3200.0,Fell,1898,44.61667,-70.75
Andreevka,Valid,L3,600.0,Fell,1969,48.7,37.5
Andura,Valid,H6,17900.0,Fell,1939,20.88333,76.86667
Northwest Africa 5815,Valid,L5,256.8,Found,,0.0,0.0
Angers,Valid,L6,,Fell,1822,47.46667,-0.55
Angra dos Reis (stone),Valid,Angrite,1500.0,Fell,1869,-22.96667,-44.31667
Ankober,Valid,H4,6500.0,Fell,1942,9.53333,39.71667
Anlong,Valid,H5,2500.0,Fell,1971,25.15,105.18333
Aomori,Valid,L6,320.0,Fell,1984,40.81056,140.78556
Appley Bridge,Valid,LL6,15000.0,Fell,1914,53.58333,-2.71667
Apt,Valid,L6,3200.0,Fell,1803,43.86667,5.38333
Arbol Solo,Valid,H5,810.0,Fell,1954,-33.0,-66.0
Archie,Valid,H6,5070.0,Fell,1932,38.5,-94.3
Arroyo Aguiar,Valid,H5,7450.0,Fell,1950,-31.41667,-60.66667
Asco,Valid,H6,41.0,Fell,1805,42.45,9.03333
Ash Creek,Valid,L6,9500.0,Fell,2009,31.805,-97.01
Ashdon,Valid,L6,1300.0,Fell,1923,52.05,0.3
Assisi,Valid,H5,2000.0,Fell,1886,43.03333,12.55
Atarra,Valid,L4,1280.0,Fell,1920,25.25417,80.625
Atemajac,Valid,L6,94.2,Fell,1896,20.06667,-103.66667
Athens,Valid,LL6,265.0,Fell,1933,34.75,-87.0
Atoka,Valid,L6,1384.2,Fell,1945,34.31667,-96.15
Aubres,Valid,Aubrite,800.0,Fell,1836,44.38333,5.16667
Aumale,Valid,L6,50000.0,Fell,1865,36.16667,3.66667
Aumieres,Valid,L6,2000.0,Fell,1842,44.33333,3.23333
Ausson,Valid,L5,50000.0,Fell,1858,43.08333,0.58333
Avanhandava,Valid,H4,9330.0,Fell,1952,-21.46028,-49.95083
Avce,Valid,"Iron, IIAB",1230.0,Fell,1908,46.0,13.5
Avilez,Valid,H,146.0,Fell,1855,25.0,-103.5
Awere,Valid,L4,134.0,Fell,1968,2.71667,32.83333
Aztec,Valid,L6,2830.0,Fell,1938,36.8,-108.0
Bachmut,Valid,L6,18000.0,Fell,1814,48.6,38.0
Bahjoi,Valid,"Iron, IAB-sLL",10322.0,Fell,1934,28.48333,78.5
Bald Mountain,Valid,L4,3700.0,Fell,1929,35.96667,-82.48333
Baldwyn,Valid,L6,345.0,Fell,1922,34.5,-88.66667
Bali,Valid,CV3,1000.0,Fell,1907,5.38333,16.38333
Ban Rong Du,Valid,"Iron, ungrouped",16700.0,Fell,1993,16.66667,101.18333
Bandong,Valid,LL6,11500.0,Fell,1871,-6.91667,107.6
Bansur,Valid,L6,15000.0,Fell,1892,27.7,76.33333
Banswal,Valid,L5,14.0,Fell,1913,30.4,78.2
Banten,Valid,CM2,629.0,Fell,1933,-6.33333,106.0
Barbotan,Valid,H5,6400.0,Fell,1790,43.95,-0.05
Barcelona (stone),Valid,OC,,Fell,1704,41.36667,2.16667
Barea,Valid,Mesosiderite-A1,3200.0,Fell,1842,42.38333,-2.5
Barnaul,Valid,H5,23.2,Fell,1904,52.73333,84.08333
Barntrup,Valid,LL4,17.0,Fell,1886,52.0,9.1
Baroti,Valid,L6,4500.0,Fell,1910,31.61667,76.8
Barwell,Valid,L5,44000.0,Fell,1965,52.56528,-1.33972
Bassikounou,Valid,H5,29560.0,Fell,2006,15.78333,-5.9
Baszkówka,Valid,L5,15500.0,Fell,1994,52.03333,20.93583
Bath,Valid,H4,21000.0,Fell,1892,45.41667,-98.31667
Bath Furnace,Valid,L6,86000.0,Fell,1902,38.25,-83.75
Battle Mountain,Valid,L6,2900.0,Fell,2012,40.66813,-117.18913
Bawku,Valid,LL5,1557.0,Fell,1989,11.08333,-0.18333
Baxter,Valid,L6,611.0,Fell,1916,36.75,-93.5
Beardsley,Valid,H5,16000.0,Fell,1929,39.8,-101.2
Beaver Creek,Valid,H5,14000.0,Fell,1893,51.16667,-117.33333
Beddgelert,Valid,H5,794.0,Fell,1949,53.01667,-4.1
Bells,Valid,C2-ung,375.0,Fell,1961,33.6,-96.46667
Belville,Valid,OC,,Fell,1937,-32.33333,-64.86667
Benares (a),Valid,LL4,3700.0,Fell,1798,25.36667,82.91667
Benguerir,Valid,LL6,25000.0,Fell,2004,32.25,-8.15
Beni M'hira,Valid,L6,19000.0,Fell,2001,32.86667,10.8
Benld,Valid,H6,1770.5,Fell,1938,39.08333,-89.15
Benoni,Valid,H6,3880.0,Fell,1943,-26.16667,28.41667
Bensour,Valid,LL6,45000.0,Fell,2002,30.0,-7.0
Benton,Valid,LL6,2840.0,Fell,1949,45.95,-67.55
Berduc,Valid,L6,270.0,Fell,2008,-31.91,-58.32833
Béréba,Valid,Eucrite-mmict,18000.0,Fell,1924,11.65,-3.65
Berlanguillas,Valid,L6,1440.0,Fell,1811,41.68333,-3.8
Berthoud,Valid,Eucrite-mmict,960.0,Fell,2004,40.30583,-105.02325
Bethlehem,Valid,H,13.9,Fell,1859,42.53333,-73.83333
Beuste,Valid,L5,2000.0,Fell,1859,43.21667,-0.23333
Beyrout,Valid,LL3.8,1100.0,Fell,1921,33.88333,35.5
Bhagur,Valid,L6,18.0,Fell,1877,20.88333,74.83333
Bhawad,Valid,LL6,678.0,Fell,2002,26.50833,73.11528
Bherai,Valid,L6,100.0,Fell,1893,20.83333,71.46667
Bhola,Valid,LL3-6,1047.0,Fell,1940,22.68333,90.65
Bholghati,Valid,Howardite,2500.0,Fell,1905,22.08333,86.9
Bialystok,Valid,Eucrite-pmict,4000.0,Fell,1827,53.1,23.2
Bielokrynitschie,Valid,H4,1900.0,Fell,1887,50.13333,27.16667
Bilanga,Valid,Diogenite,25000.0,Fell,1999,12.45,-0.08333
Binningup,Valid,H5,488.1,Fell,1984,-33.15639,115.67639
Birni N'konni,Valid,H4,560.0,Fell,1923,13.76667,5.3
Bishopville,Valid,Aubrite,6000.0,Fell,1843,34.16667,-80.28333
Bishunpur,Valid,LL3.15,1039.0,Fell,1895,25.38333,82.6
Bjelaja Zerkov,Valid,H6,1850.0,Fell,1796,49.78333,30.16667
Bjurböle,Valid,L/LL4,330000.0,Fell,1899,60.4,25.8
Black Moshannan Park,Valid,L5,705.0,Fell,1941,40.91667,-78.08333
Blackwell,Valid,L5,2381.0,Fell,1906,36.83333,-97.33333
Blanket,Valid,L6,5100.0,Fell,1909,31.83333,-98.83333
Blansko,Valid,H6,470.0,Fell,1833,49.36667,16.63333
Bloomington,Valid,LL6,67.8,Fell,1938,40.48,-89.00417
Bo Xian,Valid,LL3.9,7500.0,Fell,1977,33.83333,115.83333
Bocas,Valid,L6,56.0,Fell,1804,23.0,-102.0
Bogou,Valid,"Iron, IAB-MG",8800.0,Fell,1962,12.5,0.7
Boguslavka,Valid,"Iron, IIAB",256000.0,Fell,1916,44.55,131.63333
Borgo San Donino,Valid,LL6,1676.0,Fell,1808,44.86667,10.05
Bori,Valid,L6,8600.0,Fell,1894,21.95,78.03333
Boriskino,Valid,CM2,1342.0,Fell,1930,54.23333,52.48333
Borkut,Valid,L5,7000.0,Fell,1852,48.15,24.28333
Borodino,Valid,H5,500.0,Fell,1812,55.46667,35.86667
Botschetschki,Valid,L4,614.0,Fell,1823,51.33333,33.88333
Boumdeid (2003),Valid,L6,190.0,Fell,2003,17.71067,-11.3715
Boumdeid (2011),Valid,L6,3599.0,Fell,2011,17.17493,-11.34133
Bovedy,Valid,L3,5460.0,Fell,1969,54.56667,-6.33333
Bradford Woods,Valid,L,762.0,Fell,1886,40.5,-80.08333
Braunau,Valid,"Iron, IIAB",39000.0,Fell,1847,50.6,16.3
Breitscheid,Valid,H5,1500.0,Fell,1956,50.66694,8.18361
Bremervörde,Valid,H/L3.9,7250.0,Fell,1855,53.4,9.1
Brient,Valid,Eucrite-pmict,219.0,Fell,1933,52.13333,59.31667
Bruderheim,Valid,L6,303000.0,Fell,1960,53.9,-112.88333
Bukhara,Valid,CV3,5300.0,Fell,2001,39.77978,64.60035
Bunburra Rockhole,Valid,Eucrite,324.0,Fell,2007,-31.35,129.19
Bununu,Valid,Howardite,357.0,Fell,1942,10.01667,9.58333
Bur-Gheluai,Valid,H5,120000.0,Fell,1919,5.0,48.0
Burnwell,Valid,H4-an,1504.0,Fell,1990,37.62194,-82.23722
Bursa,Valid,L6,25000.0,Fell,1946,40.2,29.23333
Buschhof,Valid,L6,5000.0,Fell,1863,46.45,25.78333
Bustee,Valid,Aubrite,1500.0,Fell,1852,26.78333,82.83333
Butsura,Valid,H6,29000.0,Fell,1861,27.08333,84.08333
Buzzard Coulee,Valid,H4,41000.0,Fell,2008,52.996,-109.84817
Cabezo de Mayo,Valid,L/LL6,25000.0,Fell,1870,37.98333,-1.16667
Cabin Creek,Valid,"Iron, IIIAB",48500.0,Fell,1886,35.5,-93.5
Cacak,Valid,OC,212.0,Fell,1919,43.83889,20.33333
Cali,Valid,H/L4,478.0,Fell,2007,3.405,-76.51
Calivo,Valid,Stone-uncl,2400.0,Fell,1916,11.75,122.33333
Campos Sales,Valid,L5,23680.0,Fell,1991,-7.03333,-40.16667
Çanakkale,Valid,L6,4000.0,Fell,1964,39.8,26.6
Cañellas,Valid,H4,945.0,Fell,1861,41.25,1.66667
Cangas de Onis,Valid,H5,34000.0,Fell,1866,43.38333,-5.15
Canon City,Valid,H6,1400.0,Fell,1973,38.47028,-105.24139
Cape Girardeau,Valid,H6,2300.0,Fell,1846,37.26667,-89.58333
Capilla del Monte,Valid,H6,750.0,Fell,1934,-30.88333,-64.55
Carancas,Valid,H4-5,342.0,Fell,2007,-16.66444,-69.04389
Caratash,Valid,LL6,8.0,Fell,1902,38.5,27.0
Castalia,Valid,H5,7300.0,Fell,1874,36.08333,-78.06667
Castel Berardenga,Valid,Stone-uncl,,Fell,1791,43.35,11.5
Castine,Valid,L6,94.0,Fell,1848,44.38333,-68.75
Castrovillari,Valid,Stone-uncl,15000.0,Fell,1583,39.8,16.2
Caswell County,Valid,OC,1360.0,Fell,1810,36.5,-79.25
Ceniceros,Valid,L3.7,1025.0,Fell,1988,26.46667,-105.23333
Centerville,Valid,H5,45.6,Fell,1956,43.2,-96.91667
Cereseto,Valid,H5,6460.0,Fell,1840,45.08333,8.3
Chadong,Valid,L6,3700.0,Fell,1998,28.53333,109.31667
Chail,Valid,H6,0.5,Fell,1814,25.36667,81.66667
Chainpur,Valid,LL3.4,8200.0,Fell,1907,25.85,83.48333
Chajari,Valid,L5,18300.0,Fell,1933,-30.78333,-58.05
Chandakapur,Valid,L5,8800.0,Fell,1838,20.26667,76.01667
Chandpur,Valid,L6,1100.0,Fell,1885,27.28333,79.05
Changde,Valid,H5,1810.0,Fell,1977,29.08333,111.75
Chantonnay,Valid,L6,31500.0,Fell,1812,46.68333,1.05
Charlotte,Valid,"Iron, IVA",4300.0,Fell,1835,36.16667,-87.33333
Charsonville,Valid,H6,27000.0,Fell,1810,47.93333,1.56667
Charwallas,Valid,H6,12000.0,Fell,1834,29.48333,75.5
Chassigny,Valid,Martian (chassignite),4000.0,Fell,1815,47.71667,5.36667
Château-Renard,Valid,L6,30000.0,Fell,1841,47.93333,2.91667
Chaves,Valid,Howardite,2945.0,Fell,1925,41.93333,-7.46667
Chela,Valid,H4,2936.0,Fell,1988,-3.66667,32.5
Chelyabinsk,Valid,LL5,100000.0,Fell,2013,54.81667,61.11667
Chergach ,Valid,H5,100000.0,Fell,2007,23.69639,-5.01472
Chernyi Bor,Valid,H4,6000.0,Fell,1964,53.7,30.1
Cherokee Springs,Valid,LL6,8400.0,Fell,1933,35.03333,-81.88333
Chervettaz,Valid,L5,705.0,Fell,1901,46.55,6.81667
Chervony Kut,Valid,Eucrite-mmict,1700.0,Fell,1939,50.83333,34.0
Chetrinahatti,Valid,Stone-uncl,72.0,Fell,1880,14.5,76.5
Chiang Khan,Valid,H6,367.0,Fell,1981,17.9,101.63333
Chicora,Valid,LL6,303.0,Fell,1938,40.93333,-79.73333
Chisenga,Valid,"Iron, IIIAB",3920.0,Fell,1988,-10.05944,33.395
Chitado,Valid,L6,,Fell,1966,-17.35,13.96667
Chitenay,Valid,L6,4000.0,Fell,1978,47.47083,0.97667
Cilimus,Valid,L5,1600.0,Fell,1979,-6.95,108.1
Claxton,Valid,L6,1455.0,Fell,1984,32.1025,-81.87278
Colby (Wisconsin),Valid,L6,104000.0,Fell,1917,44.9,-90.28333
Cold Bokkeveld,Valid,CM2,5200.0,Fell,1838,-33.13333,19.38333
Coleman,Valid,L6,469.0,Fell,1994,43.76111,-84.50778
Collescipoli,Valid,H5,5000.0,Fell,1890,42.53333,12.61667
Conquista,Valid,H4,20350.0,Fell,1965,-19.85,-47.55
Cosina,Valid,H5,1200.0,Fell,1844,21.16667,-100.86667
Cranganore,Valid,L6,1460.0,Fell,1917,10.2,76.26667
Crescent,Valid,CM2,78.4,Fell,1936,35.95,-97.58333
Cronstad,Valid,H5,3650.0,Fell,1877,-27.7,27.3
Cross Roads,Valid,H5,167.0,Fell,1892,35.63333,-78.13333
Crumlin,Valid,L5,4255.0,Fell,1902,54.61667,-6.21667
Cumberland Falls,Valid,Aubrite,17000.0,Fell,1919,36.83333,-84.35
Cynthiana,Valid,L/LL4,6000.0,Fell,1877,38.4,-84.25
Dahmani,Valid,LL6,18000.0,Fell,1981,35.61667,8.83333
Dandapur,Valid,L6,5650.0,Fell,1878,26.91667,83.96667
Daniel's Kuil,Valid,EL6,1064.0,Fell,1868,-28.2,24.56667
Danville,Valid,L6,2000.0,Fell,1868,34.4,-87.06667
Darmstadt,Valid,H5,100.0,Fell,1804,49.86667,8.65
Dashoguz,Valid,H5,7000.0,Fell,1998,41.98444,59.685
Daule,Valid,L5,6580.0,Fell,2008,-1.87089,-79.95756
De Cewsville,Valid,H6,340.0,Fell,1887,43.0,-80.0
Deal,Valid,L6,28.0,Fell,1829,40.25,-74.0
Delhi,Valid,L5,0.8,Fell,1897,28.56667,77.25
Demina,Valid,L6,16400.0,Fell,1911,51.46667,84.76667
Denver,Valid,L6,230.0,Fell,1967,39.7825,-104.93056
Dergaon,Valid,H5,12500.0,Fell,2001,26.68333,93.86667
Desuri,Valid,H6,25400.0,Fell,1962,25.73333,73.61667
Devgaon,Valid,H3.8,12000.0,Fell,2001,19.0,81.0
Devri-Khera,Valid,L6,1140.0,Fell,1994,24.225,76.525
Dhajala,Valid,H3.8,45000.0,Fell,1976,22.37778,71.42722
Dharwar,Valid,OC,1800.0,Fell,1848,14.88333,75.6
Dhurmsala,Valid,LL6,32000.0,Fell,1860,32.23333,76.46667
Didim,Valid,H3-5,3396.0,Fell,2007,37.35172,27.32997
Diep River,Valid,L6,1000.0,Fell,1906,-33.75,18.56667
Distrito Quebracho,Valid,H4,400.0,Fell,1957,-31.88333,-60.46667
Djati-Pengilon,Valid,H6,166000.0,Fell,1884,-7.5,111.5
Djermaia,Valid,H,3950.0,Fell,1961,12.73333,15.05
Djoumine,Valid,H5-6,10000.0,Fell,1999,36.95,9.55
Dokachi,Valid,H5,3840.0,Fell,1903,23.5,90.33333
Dolgovoli,Valid,L6,1600.0,Fell,1864,50.75,25.3
Domanitch,Valid,L5,438.0,Fell,1907,40.0,29.0
Dong Ujimqin Qi,Valid,Mesosiderite,128800.0,Fell,1995,45.5,119.03333
Donga Kohrod,Valid,H6,230.0,Fell,1899,21.86667,82.45
Dongtai,Valid,LL6,5500.0,Fell,1970,32.91667,120.78333
Doroninsk,Valid,H5-7,3891.0,Fell,1805,51.2,112.3
Dosso,Valid,L6,1250.0,Fell,1962,13.05,3.16667
Douar Mghila,Valid,LL6,1161.0,Fell,1932,32.33333,-6.3
Dowa,Valid,Stone-uncl,642.0,Fell,1976,-13.66667,33.91667
Drake Creek,Valid,L6,5000.0,Fell,1827,36.4,-86.5
Dresden (Ontario),Valid,H6,47700.0,Fell,1939,42.52,-82.26
Dubrovnik,Valid,L3-6,1900.0,Fell,1951,42.45833,18.44167
Dunbogan,Valid,L6,30.0,Fell,1999,-31.66667,152.83333
Dundrum,Valid,H5,2270.0,Fell,1865,52.55,-8.03333
Dunhua,Valid,Stone-uncl,,Fell,1976,43.33333,128.25
Durala,Valid,L6,13200.0,Fell,1815,30.3,76.63333
Duruma,Valid,L6,577.0,Fell,1853,-4.0,39.5
Duwun,Valid,L6,2117.0,Fell,1943,33.43333,127.26667
Dwaleni,Valid,H4-6,3230.0,Fell,1970,-27.2,31.31667
Dyalpur,Valid,Ureilite,300.0,Fell,1872,26.25,82.0
Dyarrl Island,Valid,Mesosiderite-A1,188.0,Fell,1933,-3.0,151.0
Eagle,Valid,EL6,10000.0,Fell,1947,40.78167,-96.47167
Ehole,Valid,H5,2400.0,Fell,1961,-17.3,15.83333
Eichstädt,Valid,H5,3000.0,Fell,1785,48.9,11.21667
Ekeby,Valid,H4,3336.0,Fell,1939,56.03333,13.0
Ekh Khera,Valid,H6,840.0,Fell,1916,28.26667,78.78333
El Idrissia,Valid,L6,10000.0,Fell,1989,34.41667,3.25
El Paso de Aguila,Valid,H5,17226.0,Fell,1977,25.37,-97.37
El Tigre,Valid,L6,5000.0,Fell,1993,19.96722,-103.05167
Elbert,Valid,LL6,680.5,Fell,1998,39.24667,-104.58817
Elbogen,Valid,"Iron, IID",107000.0,Fell,1399,50.18333,12.73333
Elenovka,Valid,L5,54640.0,Fell,1951,47.83333,37.66667
Ellemeet,Valid,Diogenite,1470.0,Fell,1925,51.75,4.0
Emmaville,Valid,Eucrite-mmict,127.0,Fell,1900,-29.46667,151.61667
Enshi,Valid,H5,8000.0,Fell,1974,30.3,109.5
Ensisheim,Valid,LL6,127000.0,Fell,1491,47.86667,7.35
Épinal,Valid,H5,277.0,Fell,1822,48.18333,6.46667
Erakot,Valid,CM2,113.0,Fell,1940,19.03333,81.89167
Erevan,Valid,Howardite,107.2,Fell,1911,40.3,44.5
Ergheo,Valid,L5,20000.0,Fell,1889,1.16667,44.16667
Erxleben,Valid,H6,2250.0,Fell,1812,52.21667,11.25
Esnandes,Valid,L6,1500.0,Fell,1837,46.25,-1.1
Essebi,Valid,C2-ung,500.0,Fell,1957,2.88333,30.83333
Estherville,Valid,Mesosiderite-A3/4,320000.0,Fell,1879,43.41667,-94.83333
Farmington,Valid,L5,89400.0,Fell,1890,39.75,-97.03333
Farmville,Valid,H4,56000.0,Fell,1934,35.55,-77.53333
Favars,Valid,H5,1500.0,Fell,1844,44.38333,2.81667
Fayetteville,Valid,H4,2360.0,Fell,1934,36.05,-94.16667
Feid Chair,Valid,H4,380.0,Fell,1875,36.88333,8.45
Felix,Valid,CO3.3,3200.0,Fell,1900,32.53333,-87.16667
Fenghsien-Ku,Valid,H5,82.0,Fell,1924,34.6,116.75
Ferguson,Valid,OC,220.0,Fell,1889,36.1,-81.41667
Fermo,Valid,H3-5,10200.0,Fell,1996,43.18111,13.75333
Fisher,Valid,L6,17600.0,Fell,1894,47.81667,-96.85
Florence,Valid,H3,3640.0,Fell,1922,30.83333,-97.76667
Forest City,Valid,H5,152000.0,Fell,1890,43.25,-93.66667
Forest Vale,Valid,H4,26000.0,Fell,1942,-33.35,146.85833
Forksville,Valid,L6,6067.0,Fell,1924,36.78333,-78.08333
Forsbach,Valid,H6,240.0,Fell,1900,50.95,7.31667
Forsyth,Valid,L6,16300.0,Fell,1829,33.01667,-83.96667
Fort Flatters,Valid,Stone-uncl,,Fell,1944,28.25,7.0
Frankfort (stone),Valid,Howardite,650.0,Fell,1868,34.48333,-87.83333
Fuhe,Valid,L5,23000.0,Fell,1945,31.47556,113.56694
Fukutomi,Valid,L5,11620.0,Fell,1882,33.18333,130.2
Fünen,Valid,Stone-uncl,,Fell,1654,55.33333,10.33333
Futtehpur,Valid,L6,4000.0,Fell,1822,25.95,80.81667
Fuyang,Valid,Stone-uncl,2500.0,Fell,1977,32.9,115.9
Galapian,Valid,H6,132.7,Fell,1826,44.3,0.4
Galim (a),Valid,LL6,36.1,Fell,1952,7.05,12.43333
Galim (b),Valid,EH3/4-an,28.0,Fell,1952,7.05,12.43333
Galkiv,Valid,H4,5000.0,Fell,1995,51.68333,30.78333
Gambat,Valid,L6,6400.0,Fell,1897,27.35,68.53333
Gao-Guenie,Valid,H5,,Fell,1960,11.65,-2.18333
Garhi Yasin,Valid,"Iron, IIE",380.0,Fell,1917,27.88333,68.53333
Garland,Valid,Diogenite-pm,102.0,Fell,1950,41.68333,-112.13333
Gashua,Valid,L6,4162.0,Fell,1984,12.85,11.03333
Gasseltepaoua,Valid,H5,,Fell,2000,14.15083,-2.04167
Geidam,Valid,H5,725.0,Fell,1950,12.91667,11.91667
Gifu,Valid,L6,14290.0,Fell,1909,35.53333,136.88333
Girgenti,Valid,L6,18000.0,Fell,1853,37.31667,13.56667
Git-Git,Valid,L6,480.0,Fell,1947,9.6,9.91667
Glanerbrug,Valid,L/LL5,670.0,Fell,1990,52.2,6.86667
Glanggang,Valid,H5-6,1303.0,Fell,1939,-7.25,107.7
Glasatovo,Valid,H4,152000.0,Fell,1918,57.35,37.61667
Glatton,Valid,L6,767.0,Fell,1991,52.45972,-0.3
Gnadenfrei,Valid,H5,1750.0,Fell,1879,50.66667,16.76667
Gopalpur,Valid,H6,1600.0,Fell,1865,24.23333,89.05
Gorlovka,Valid,H3.7,3618.0,Fell,1974,48.28333,38.08333
Granes,Valid,L6,9000.0,Fell,1964,42.9,2.25
Grefsheim,Valid,L5,45.5,Fell,1976,60.66667,11.0
Grimsby,Valid,H5,215.0,Fell,2009,43.2,-79.61667
Grosnaja,Valid,CV3,3500.0,Fell,1861,43.66667,45.38333
Gross-Divina,Valid,H5,10500.0,Fell,1837,49.26667,18.71667
Grossliebenthal,Valid,L6,8000.0,Fell,1881,46.35,30.58333
Grüneberg,Valid,H4,1000.0,Fell,1841,51.93333,15.5
Grzempach,Valid,H5,690.0,Fell,1910,52.86667,16.63333
Gualeguaychú,Valid,H6,22000.0,Fell,1932,-33.0,-58.61667
Guangmingshan,Valid,H5,2910.0,Fell,1996,39.80417,122.76389
Guangnan,Valid,L6,,Fell,1983,24.1,105.0
Guangrao,Valid,L6,1900.0,Fell,1980,37.1,118.4
Guareña,Valid,H6,39000.0,Fell,1892,38.73333,-6.01667
Guêa,Valid,Stone-uncl,1915.0,Fell,1891,43.76667,20.23333
Guibga,Valid,L5,288.0,Fell,1972,13.5,-0.68333
Guidder,Valid,LL5,968.0,Fell,1949,9.91667,13.98333
Gujargaon,Valid,H5,2449.0,Fell,1982,22.98333,76.05
Gujba,Valid,CBa,100000.0,Fell,1984,11.49167,11.65833
Gumoschnik,Valid,H5,5700.0,Fell,1904,42.9,24.7
Gurram Konda,Valid,L6,28.0,Fell,1814,13.78333,78.56667
Gursum,Valid,H4/5,34650.0,Fell,1981,9.36667,42.41667
Gütersloh,Valid,H3/4,1000.0,Fell,1851,51.91667,8.38333
Gyokukei,Valid,OC,1320.0,Fell,1930,35.0,127.5
Hachi-oji,Valid,H?,0.2,Fell,1817,35.65,139.33333
Hainaut,Valid,H3-6,9000.0,Fell,1934,50.31667,3.73333
Hallingeberg,Valid,L3.4,1456.0,Fell,1944,57.81667,16.23333
Hamlet,Valid,LL4,3710.0,Fell,1959,41.38333,-86.6
Haraiya,Valid,Eucrite-mmict,1000.0,Fell,1878,26.8,82.53333
Haripura,Valid,CM2,315.0,Fell,1921,28.38333,75.78333
Harleton,Valid,L6,8360.0,Fell,1961,32.675,-94.51167
Harrison County,Valid,L6,680.0,Fell,1859,38.25,-86.16667
Hashima,Valid,H4,1110.6,Fell,1910,35.2945,136.70033
Hassi-Jekna,Valid,"Iron, IAB-sHL",1250.0,Fell,1890,28.95,0.81667
Hatford,Valid,Stone-uncl,29000.0,Fell,1628,51.65,-1.51667
Haverö,Valid,Ureilite,1544.0,Fell,1971,60.24556,22.06194
Hedeskoga,Valid,H5,3500.0,Fell,1922,55.46667,13.78333
Hedjaz,Valid,L3.7-6,6100.0,Fell,1910,27.33333,35.66667
Heredia,Valid,H5,1000.0,Fell,1857,10.0,-84.1
Hessle,Valid,H5,20000.0,Fell,1869,59.85,17.66667
Higashi-koen,Valid,H5,750.0,Fell,1897,33.6,130.43333
High Possil,Valid,L6,4500.0,Fell,1804,55.9,-4.23333
Hiroshima,Valid,H5,414.0,Fell,2003,34.45,132.38333
Hoima,Valid,H6,167.7,Fell,2003,1.345,31.47278
Hökmark,Valid,L4,305.5,Fell,1954,64.43333,21.2
Holbrook,Valid,L/LL6,220000.0,Fell,1912,34.9,-110.18333
Holetta,Valid,Stone-uncl,1415.0,Fell,1923,9.06667,38.41667
Homestead,Valid,L5,230000.0,Fell,1875,41.8,-91.86667
Honolulu,Valid,L5,2420.0,Fell,1825,21.3,-157.86667
Hotse,Valid,L6,180.0,Fell,1956,35.66667,115.5
Hoxie,Valid,OC,266.1,Fell,1963,39.35,-100.45
Hraschina,Valid,"Iron, IID",49000.0,Fell,1751,46.1,16.33333
Huaxi,Valid,H5,1600.0,Fell,2010,26.46469,106.63241
Hungen,Valid,H6,112.0,Fell,1877,50.3,8.91667
Hvittis,Valid,EL6,14000.0,Fell,1901,61.18333,22.68333
Ibbenbüren,Valid,Diogenite,2000.0,Fell,1870,52.28333,7.7
Ibitira,Valid,Eucrite-mmict,2500.0,Fell,1957,-20.0,-45.0
Ibrisim,Valid,OC,,Fell,1949,38.0,35.0
Ichkala,Valid,H6,3973.0,Fell,1936,58.2,82.93333
Idutywa,Valid,H5,3457.0,Fell,1956,-32.1,28.33333
Iguaracu,Valid,H5,1200.0,Fell,1977,-23.2,-51.83333
Ijopega,Valid,H6,7330.0,Fell,1975,-6.03333,145.36667
Indarch,Valid,EH4,27000.0,Fell,1891,39.75,46.66667
Independence,Valid,L6,880.0,Fell,1917,39.08333,-94.4
Inner Mongolia,Valid,L6,3000.0,Fell,1963,41.0,112.0
Innisfree,Valid,L5,4576.0,Fell,1977,53.415,-111.3375
Ipiranga,Valid,H6,7000.0,Fell,1972,-25.5,-54.5
Ishinga,Valid,H,1300.0,Fell,1954,-8.93333,33.8
Isthilart,Valid,H5,3050.0,Fell,1928,-31.18333,-57.95
Itapicuru-Mirim,Valid,H5,2024.0,Fell,1879,-3.4,-44.33333
Itqiy,Valid,EH7-an,4720.0,Fell,1990,26.59083,-12.95217
Ivuna,Valid,CI1,704.5,Fell,1938,-8.41667,32.43333
Jackalsfontein,Valid,L6,48000.0,Fell,1903,-32.5,21.9
Jajh deh Kot Lalu,Valid,EL6,973.0,Fell,1926,26.75,68.41667
Jalandhar,Valid,Iron,1967.0,Fell,1621,31.0,75.0
Jamkheir,Valid,H6,22.0,Fell,1866,18.75,75.33333
Jartai,Valid,L6,20500.0,Fell,1979,39.7,105.8
Jelica,Valid,LL6,34000.0,Fell,1889,43.83333,20.44167
Jesenice,Valid,L6,3667.0,Fell,2009,46.42137,14.05217
Jhung,Valid,L5,5900.0,Fell,1873,31.3,72.38333
Jiange,Valid,H5,222.0,Fell,1964,31.91667,104.91667
Jianshi,Valid,"Iron, IIIAB",600000.0,Fell,1890,30.80833,109.5
Jilin,Valid,H5,4000000.0,Fell,1976,44.05,126.16667
Jodiya,Valid,L5,100.0,Fell,2006,22.68,70.31333
Jodzie,Valid,Howardite,30.0,Fell,1877,55.7,24.4
Johnstown,Valid,Diogenite,40300.0,Fell,1924,40.35,-104.9
Jolomba,Valid,LL6,483.0,Fell,1974,-11.85,15.83333
Jonzac,Valid,Eucrite-mmict,5000.0,Fell,1819,45.43333,-0.45
Juancheng,Valid,H5,100000.0,Fell,1997,35.5,115.41667
Judesegeri,Valid,H6,680.0,Fell,1876,12.85,76.8
Jumapalo,Valid,L6,32490.0,Fell,1984,-7.71667,111.2
Junan,Valid,L6,950.0,Fell,1976,35.2,118.8
Juromenha,Valid,"Iron, IIIAB",25250.0,Fell,1968,38.74028,-7.27
Juvinas,Valid,Eucrite-mmict,91000.0,Fell,1821,44.71667,4.3
Kaba,Valid,CV3,3000.0,Fell,1857,47.35,21.3
Kabo,Valid,H4,13400.0,Fell,1971,11.85,8.21667
Kadonah,Valid,H6,89.0,Fell,1822,27.08333,78.33333
Kaee,Valid,H5,230.0,Fell,1838,27.25,79.96667
Kagarlyk,Valid,L6,1900.0,Fell,1908,49.86667,30.83333
Kaidun,Valid,CR2,2000.0,Fell,1980,15.0,48.3
Kainsaz,Valid,CO3.2,200000.0,Fell,1937,55.43333,53.25
Kakangari,Valid,K3,350.0,Fell,1890,12.38333,78.51667
Kakowa,Valid,L6,577.0,Fell,1858,45.13333,21.66667
Kalaba,Valid,H4,950.0,Fell,1951,-6.83333,29.5
Kalumbi,Valid,L6,4500.0,Fell,1879,17.83333,73.98333
Kamalpur,Valid,L6,2770.0,Fell,1942,26.03333,81.46667
Kamiomi,Valid,H5,448.0,Fell,1913,36.04167,139.95667
Kamsagar,Valid,L6,1293.0,Fell,1902,14.18333,75.8
Kandahar (Afghanistan),Valid,L6,299.0,Fell,1959,31.6,65.78333
Kangean,Valid,H5,1630.0,Fell,1908,-7.0,115.5
Kangra Valley,Valid,H5,400.0,Fell,1897,32.08333,76.3
Kapoeta,Valid,Howardite,11355.0,Fell,1942,4.7,33.63333
Kaprada,Valid,L5/6,1600.0,Fell,2004,20.33916,73.22329
Kaptal-Aryk,Valid,L6,3500.0,Fell,1937,42.45,73.36667
Karakol,Valid,LL6,3000.0,Fell,1840,47.21667,81.01667
Karatu,Valid,LL6,2220.0,Fell,1963,-3.5,35.58333
Karewar,Valid,L6,180.0,Fell,1949,12.9,7.15
Karkh,Valid,L6,22000.0,Fell,1905,27.8,67.16667
Karloowala,Valid,L6,2950.0,Fell,1955,31.58333,71.6
Karoonda,Valid,CK4,41730.0,Fell,1930,-35.08333,139.91667
Kasamatsu,Valid,H,710.0,Fell,1938,35.36667,136.76667
Kasauli,Valid,H4,16820.0,Fell,2003,29.58333,77.58333
Katagum,Valid,L6,1500.0,Fell,1999,11.33333,10.08333
Kavarpura,Valid,"Iron, IIE-an",6800.0,Fell,2006,25.14333,75.81333
Kayakent,Valid,"Iron, IIIAB",85000.0,Fell,1961,39.26333,31.78
Kediri,Valid,L4,3300.0,Fell,1940,-7.75,112.01667
Kemer,Valid,L4,5760.0,Fell,2008,36.54194,29.41822
Kendleton,Valid,L4,6937.0,Fell,1939,29.45,-96.0
Kendrapara,Valid,H4-5,6669.2,Fell,2003,20.4625,86.70278
Kerilis,Valid,H5,5000.0,Fell,1874,48.4,-3.3
Kernouve,Valid,H6,80000.0,Fell,1869,48.11667,-3.08333
Kesen,Valid,H4,135000.0,Fell,1850,38.98333,141.61667
Khairpur,Valid,EL6,13600.0,Fell,1873,29.53333,72.3
Khanpur,Valid,LL5,3698.0,Fell,1932,25.55,83.11667
Kharkov,Valid,L6,1500.0,Fell,1787,50.625,35.075
Kheragur,Valid,L6,450.0,Fell,1860,26.95,77.88333
Khetri,Valid,H6,100.0,Fell,1867,28.01667,75.81667
Khmelevka,Valid,L5,6109.0,Fell,1929,56.75,75.33333
Khohar,Valid,L3.6,9700.0,Fell,1910,25.1,81.53333
Khor Temiki,Valid,Aubrite,3200.0,Fell,1932,16.0,36.0
Kidairat,Valid,H6,100000.0,Fell,1983,14.0,28.0
Kiel,Valid,L6,737.6,Fell,1962,54.4,10.15
Kiffa,Valid,H5,1500.0,Fell,1970,16.58333,-11.33333
Kijima (1906),Valid,Stone-uncl,331.0,Fell,1906,36.85,138.38333
Kikino,Valid,H6,195.0,Fell,1809,55.0,34.0
Kilabo,Valid,LL6,19000.0,Fell,2002,12.76667,9.8
Kilbourn,Valid,H5,772.0,Fell,1911,43.58333,-89.6
Killeter,Valid,H6,140.0,Fell,1844,54.66667,-7.66667
Kingai,Valid,H6,67.4,Fell,1967,11.63333,24.68333
Kirbyville,Valid,Eucrite-mmict,97.7,Fell,1906,30.75,-95.95
Kisvarsány,Valid,L6,1550.0,Fell,1914,48.16667,22.30833
Kitchener,Valid,L6,202.6,Fell,1998,43.38333,-80.38333
Klein-Wenden,Valid,H6,3250.0,Fell,1843,51.6,10.8
Knyahinya,Valid,L/LL5,500000.0,Fell,1866,48.9,22.4
Kobe,Valid,CK4,136.0,Fell,1999,34.73333,135.16667
Kokubunji,Valid,L6,11510.0,Fell,1986,34.3,133.95
Komagome,Valid,Iron,238.0,Fell,1926,35.73333,139.75
Konovo,Valid,LL5,90.0,Fell,1931,42.51667,26.16667
Košice,Valid,H5,4300.0,Fell,2010,48.76367,21.17633
Krähenberg,Valid,LL5,16500.0,Fell,1869,49.32694,7.46472
Krasnoi-Ugol,Valid,L6,2440.0,Fell,1829,54.03333,40.9
Krasnyi Klyuch,Valid,H5,4000.0,Fell,1946,54.33333,56.08333
Krutikha,Valid,OC,845.2,Fell,1906,56.8,77.0
Krymka,Valid,LL3.2,50000.0,Fell,1946,47.83333,30.76667
Kukschin,Valid,L6,2250.0,Fell,1938,51.15,31.7
Kulak,Valid,L5,453.6,Fell,1961,30.73111,66.80222
Kuleschovka,Valid,L6,6000.0,Fell,1811,50.75,33.5
Kulp,Valid,H6,3719.0,Fell,1906,41.11667,45.0
Kunashak,Valid,L6,200000.0,Fell,1949,55.78333,61.36667
Kunya-Urgench,Valid,H5,1100000.0,Fell,1998,42.25,59.2
Kushiike,Valid,OC,4460.0,Fell,1920,37.05,138.38333
Kusiali,Valid,L6,5.0,Fell,1860,29.68333,78.38333
Kutais,Valid,H5,23.0,Fell,1977,44.51667,39.3
Kuttippuram,Valid,L6,45000.0,Fell,1914,10.83333,76.03333
Kuznetzovo,Valid,L6,4047.0,Fell,1932,55.2,75.33333
Kyushu,Valid,L6,45000.0,Fell,1886,32.03333,130.63333
La Bécasse,Valid,L6,2800.0,Fell,1879,47.08333,1.75
La Charca,Valid,OC,399.0,Fell,1878,20.66667,-101.28333
La Colina,Valid,H5,2000.0,Fell,1924,-37.33333,-61.53333
La Criolla,Valid,L6,45000.0,Fell,1985,-31.23333,-58.16667
Laborel,Valid,H5,3833.0,Fell,1871,44.28333,5.58333
Lahrauli,Valid,Ureilite,900.0,Fell,1955,26.78333,82.71667
L'Aigle,Valid,L6,37000.0,Fell,1803,48.76667,0.63333
Lakangaon,Valid,Eucrite-mmict,212.5,Fell,1910,21.86667,76.03333
Lalitpur,Valid,L6,372.0,Fell,1887,24.45,78.56667
Lancé,Valid,CO3.5,51700.0,Fell,1872,47.7,1.06667
Lancon,Valid,H6,7000.0,Fell,1897,43.75,5.11667
Långhalsen,Valid,L6,2300.0,Fell,1947,58.85,16.73333
Lanxi,Valid,L6,1282.0,Fell,1986,46.24167,126.19611
Lanzenkirchen,Valid,L4,7000.0,Fell,1925,47.75,16.23333
Laochenzhen,Valid,H5,14250.0,Fell,1987,33.13333,115.16667
Launton,Valid,L6,1060.0,Fell,1830,51.9,-1.11667
Lavrentievka,Valid,L6,800.0,Fell,1938,52.45,51.56667
Le Pressoir,Valid,H5,3000.0,Fell,1845,47.16667,0.43333
Le Teilleul,Valid,Howardite,780.0,Fell,1845,48.53333,-0.86667
Leedey,Valid,L6,51500.0,Fell,1943,35.88333,-99.33333
Leeuwfontein,Valid,L6,460.0,Fell,1912,-25.66667,28.36667
Leighlinbridge,Valid,L6,271.4,Fell,1999,52.66667,-6.96667
Leighton,Valid,H5,877.0,Fell,1907,34.58333,-87.5
Leonovka,Valid,L6,700.0,Fell,1900,52.26667,32.85
Les Ormes,Valid,L6,125.0,Fell,1857,48.35,3.25
Lesves,Valid,L6,2000.0,Fell,1896,50.36667,4.73333
Lichtenberg,Valid,H6,4000.0,Fell,1973,-26.15,26.18333
Lillaverke,Valid,H5,6862.0,Fell,1930,56.65,15.86667
Limerick,Valid,H5,50000.0,Fell,1813,52.56667,-8.78333
Linum,Valid,L6,1862.0,Fell,1854,52.75,12.9
Lishui,Valid,L5,498.0,Fell,1978,31.63333,118.98333
Lissa,Valid,L6,12800.0,Fell,1808,50.2,14.85
Little Piney,Valid,L5,491.0,Fell,1839,37.91667,-92.08333
Lixna,Valid,H4,5213.0,Fell,1820,56.0,26.43333
Lodran,Valid,Lodranite,1000.0,Fell,1868,29.53333,71.8
Lohawat,Valid,Howardite,40000.0,Fell,1994,26.96556,72.62667
Lorton,Valid,L6,329.7,Fell,2010,38.70066,-77.21163
Los Martinez,Valid,L6,25.0,Fell,1894,38.0,-0.83333
Lost City,Valid,H5,17000.0,Fell,1970,36.00833,-95.15
Louisville,Valid,L6,1300.0,Fell,1977,38.25,-85.75
Łowicz,Valid,Mesosiderite-A3,59000.0,Fell,1935,52.0,19.91667
Lua,Valid,L5,9241.0,Fell,1926,24.95,75.15
Lucé,Valid,L6,3500.0,Fell,1768,47.85,0.48333
Lumpkin,Valid,L6,340.0,Fell,1869,32.03333,-84.76667
Lunan,Valid,H6,2520.0,Fell,1980,24.8,103.3
Lundsgård,Valid,L6,11000.0,Fell,1889,56.21667,13.03333
Luotolax,Valid,Howardite,885.0,Fell,1813,61.2,27.7
Luponnas,Valid,H3-5,14000.0,Fell,1753,46.21667,5.0
Lusaka,Valid,Unknown,,Fell,1951,-7.21667,29.43333
Mabwe-Khoywa,Valid,L5,540.0,Fell,1937,19.0,97.0
Macau,Valid,H5,1500.0,Fell,1836,-5.2,-36.66667
Machinga,Valid,L6,93200.0,Fell,1981,-15.21222,35.24222
Macibini,Valid,Eucrite-pmict,1995.0,Fell,1936,-28.83333,31.95
Madhipura,Valid,L,1000.0,Fell,1950,25.91667,86.36667
Madiun,Valid,L6,400.0,Fell,1935,-7.75,111.53333
Madrid,Valid,L6,400.0,Fell,1896,40.41667,-3.71667
Mafra,Valid,L3-4,600.0,Fell,1941,-26.16667,-49.93333
Magnesia,Valid,"Iron, IAB-sHL",5000.0,Fell,1899,37.86667,27.51667
Magombedze,Valid,H3-5,666.6,Fell,1990,-19.48333,31.65
Mahadevpur,Valid,H4/5,70500.0,Fell,2007,27.66667,95.78333
Maigatari-Danduma,Valid,H5/6,4629.0,Fell,2004,12.83333,9.38333
Malaga,Valid,OC,150.0,Fell,1933,32.21667,-104.0
Malakal,Valid,L5,2000.0,Fell,1970,9.5,31.75
Malampaka,Valid,H,470.0,Fell,1930,-3.13333,33.51667
Malotas,Valid,H5,,Fell,1931,-28.93333,-63.23333
Malvern,Valid,Eucrite-pmict,807.0,Fell,1933,-29.45,26.76667
Mamra Springs,Valid,L6,1000.0,Fell,1927,45.21667,62.08333
Manbhoom,Valid,LL6,1700.0,Fell,1863,23.05,86.7
Manegaon,Valid,Diogenite,50.0,Fell,1843,20.96667,76.1
Mangwendi,Valid,LL6,22300.0,Fell,1934,-17.65,31.6
Manych,Valid,LL3.4,3555.0,Fell,1951,45.81667,44.63333
Mardan,Valid,H5,4500.0,Fell,1948,34.23333,72.08333
Mariaville,Valid,Iron,340.0,Fell,1898,42.71667,-99.38333
Maribo,Valid,CM2,25.81,Fell,2009,54.76183,11.46745
Maridi,Valid,H6,3200.0,Fell,1941,4.66667,29.25
Marilia,Valid,H4,2500.0,Fell,1971,-22.25,-49.93333
Marion (Iowa),Valid,L6,28400.0,Fell,1847,41.9,-91.6
Marjalahti,Valid,"Pallasite, PMG",45000.0,Fell,1902,61.5,30.5
Marmande,Valid,L5,3000.0,Fell,1848,44.5,0.15
Maromandia,Valid,L6,6000.0,Fell,2002,-14.2,48.1
Maryville,Valid,L6,1443.0,Fell,1983,35.8,-84.1
Mascombes,Valid,L6,1000.0,Fell,1836,45.36667,1.86667
Mason Gully,Valid,H5,24.54,Fell,2010,0.0,0.0
Mässing,Valid,Howardite,1600.0,Fell,1803,48.13333,12.61667
Mauerkirchen,Valid,L6,19000.0,Fell,1768,48.18333,13.13333
Mauritius,Valid,L6,220.0,Fell,1801,-20.0,57.0
Mayo Belwa,Valid,Aubrite,4850.0,Fell,1974,8.96667,12.08333
Mazapil,Valid,"Iron, IAB-sLL",4000.0,Fell,1885,24.68333,-101.68333
Maziba,Valid,L6,4975.0,Fell,1942,-1.21667,30.0
Mbale,Valid,L5/6,150000.0,Fell,1992,1.06667,34.16667
Medanitos,Valid,Eucrite-cm,31.0,Fell,1953,-27.25,-67.5
Meerut,Valid,H5,22.0,Fell,1861,29.01667,77.8
Meester-Cornelis,Valid,H5,24750.0,Fell,1915,-6.23333,106.88333
Menow,Valid,H4,10500.0,Fell,1862,53.18333,13.15
Menziswyl,Valid,L5,28.9,Fell,1903,46.81867,7.21817
Mern,Valid,L6,4000.0,Fell,1878,55.05,12.06667
Meru,Valid,LL6,6000.0,Fell,1945,0.0,37.66667
Merua,Valid,H5,71400.0,Fell,1920,25.48333,81.98333
Messina,Valid,L5,2405.0,Fell,1955,38.18333,15.56667
Meuselbach,Valid,L6,870.0,Fell,1897,50.58333,11.1
Mezel,Valid,L6,1300.0,Fell,1949,45.76667,3.25
Mezö-Madaras,Valid,L3.7,22700.0,Fell,1852,46.5,25.73333
Mhow,Valid,L6,350.0,Fell,1827,25.9,83.61667
Mianchi,Valid,H5,1100.0,Fell,1980,34.8,111.7
Middlesbrough,Valid,L6,1600.0,Fell,1881,54.56667,-1.16667
Mifflin,Valid,L5,3584.0,Fell,2010,42.9075,-90.36556
Mighei,Valid,CM2,8000.0,Fell,1889,48.06667,30.96667
Mihonoseki,Valid,L6,6380.0,Fell,1992,35.56833,133.22
Mike,Valid,L6,224.2,Fell,1944,46.23333,17.53333
Milena,Valid,L6,10000.0,Fell,1842,46.18333,16.1
Millbillillie,Valid,Eucrite-mmict,330000.0,Fell,1960,-26.45,120.36667
Miller (Arkansas),Valid,H5,16700.0,Fell,1930,35.4,-92.05
Minamino,Valid,L,1040.0,Fell,1632,35.07833,136.93333
Mineo,Valid,Pallasite,42.0,Fell,1826,37.28333,14.7
Min-Fan-Zhun,Valid,LL6,5500.0,Fell,1952,32.33333,120.66667
Minnichhof,Valid,OC,550.0,Fell,1905,47.7,16.6
Mirzapur,Valid,L5,8510.0,Fell,1910,25.68333,83.25
Misshof,Valid,H5,5800.0,Fell,1890,56.66667,23.0
Mjelleim,Valid,H,100.7,Fell,1898,61.73333,5.93333
Mocs,Valid,L5-6,300000.0,Fell,1882,46.8,24.03333
Modoc (1905),Valid,L6,35000.0,Fell,1905,38.5,-101.1
Mokoia,Valid,CV3,4500.0,Fell,1908,-39.63333,174.4
Molina,Valid,H5,144000.0,Fell,1858,38.11667,-1.16667
Molteno,Valid,Howardite,150.0,Fell,1953,-31.25,26.46667
Monahans (1998),Valid,H5,2587.0,Fell,1998,31.60833,-102.85833
Monroe,Valid,H4,8600.0,Fell,1849,35.25,-80.5
Monte das Fortes,Valid,L5,4885.0,Fell,1950,38.01667,-8.25
Monte Milone,Valid,L5,3130.0,Fell,1846,43.26667,13.35
Montferré,Valid,H5,149000.0,Fell,1923,43.39056,1.9625
Montlivault,Valid,L6,500.0,Fell,1838,47.63333,1.58333
Monze,Valid,L6,,Fell,1950,-15.96667,27.35
Moore County,Valid,Eucrite-cm,1880.0,Fell,1913,35.41667,-79.38333
Mooresfort,Valid,H5,3520.0,Fell,1810,52.45,-8.33333
Moorleah,Valid,L6,8887.5,Fell,1930,-40.975,145.6
Moradabad,Valid,L6,70.0,Fell,1808,28.78333,78.83333
Morávka,Valid,H5,633.0,Fell,2000,49.6,18.53333
Mornans,Valid,H5,1300.0,Fell,1875,44.6,5.13333
Moss,Valid,CO3.6,3763.0,Fell,2006,59.43333,10.7
Moti-ka-nagla,Valid,H6,1500.0,Fell,1868,26.83333,77.33333
Motta di Conti,Valid,H4,9150.0,Fell,1868,45.2,8.5
Mount Browne,Valid,H6,11300.0,Fell,1902,-29.8,141.7
Mount Tazerzait,Valid,L5,110000.0,Fell,1991,18.7,4.8
Mount Vaisi,Valid,Stone-uncl,17000.0,Fell,1637,44.08333,6.86667
Mtola,Valid,Stone-uncl,1100.0,Fell,1944,-11.5,33.5
Muddoor,Valid,L5,4400.0,Fell,1865,12.63333,77.01667
Mulletiwu,Valid,L,25.5,Fell,1795,9.33333,80.83333
Muraid,Valid,L6,4703.0,Fell,1924,24.5,90.21667
Murchison,Valid,CM2,100000.0,Fell,1969,-36.61667,145.2
Murray,Valid,CM2,12600.0,Fell,1950,36.6,-88.1
Muzaffarpur,Valid,"Iron, IAB-sHL",1245.0,Fell,1964,26.13333,85.53333
Myhee Caunta,Valid,OC,,Fell,1842,23.05,72.63333
Nadiabondi,Valid,H5,8165.0,Fell,1956,12.0,1.0
Nagai,Valid,L6,1810.0,Fell,1922,38.12167,140.06167
Nagaria,Valid,Eucrite-cm,20.0,Fell,1875,26.98333,78.21667
Nagy-Borové,Valid,L5,6100.0,Fell,1895,49.16667,19.5
Nakhla,Valid,Martian (nakhlite),10000.0,Fell,1911,31.31667,30.35
Nakhon Pathom,Valid,L6,23200.0,Fell,1923,13.73333,100.08333
Nammianthal,Valid,H5,4500.0,Fell,1886,12.28333,79.2
Nan Yang Pao,Valid,L6,52900.0,Fell,1917,35.66667,103.5
Nanjemoy,Valid,H6,7500.0,Fell,1825,38.41667,-77.16667
Nantong,Valid,H6,529.0,Fell,1984,32.11667,121.8
Naoki,Valid,H6,17000.0,Fell,1928,19.25,77.0
Naragh,Valid,H6,2700.0,Fell,1974,33.75,51.5
Narellan,Valid,L6,367.5,Fell,1928,-34.05,150.68889
Narni,Valid,Stone-uncl,,Fell,0920,42.51667,12.51667
Nassirah,Valid,H4,347.0,Fell,1936,-21.73333,165.9
Nawapali,Valid,CM2,105.0,Fell,1890,21.25,83.66667
Neagari,Valid,L6,420.0,Fell,1995,36.44917,136.46528
Nedagolla,Valid,"Iron, ungrouped",4500.0,Fell,1870,18.68333,83.48333
Nejo,Valid,L6,2450.0,Fell,1970,9.5,35.33333
Nerft,Valid,L6,10250.0,Fell,1864,56.5,21.5
Neuschwanstein,Valid,EL6,6189.0,Fell,2002,47.525,10.80833
New Concord,Valid,L6,230000.0,Fell,1860,40.0,-81.76667
New Halfa,Valid,L4,12000.0,Fell,1994,15.36667,35.68333
New Orleans,Valid,H5,19256.0,Fell,2003,29.94718,-90.10976
Ngawi,Valid,LL3.6,1393.0,Fell,1883,-7.45,111.41667
N'Goureyma,Valid,"Iron, ungrouped",37500.0,Fell,1900,13.85,-4.38333
Nicorps,Valid,Stone-uncl,,Fell,1750,49.03333,-1.43333
Nikolaevka,Valid,H4,3996.0,Fell,1935,52.45,78.63333
Nikolskoe,Valid,L4,6000.0,Fell,1954,56.11667,37.33333
Ningbo,Valid,"Iron, IVA",14250.0,Fell,1975,29.86667,121.48333
Ningqiang,Valid,C3-ung,4610.0,Fell,1983,32.925,105.90667
Nio,Valid,H3-4,467.0,Fell,1897,34.2,131.56667
N'Kandhla,Valid,"Iron, IID",17200.0,Fell,1912,-28.56667,30.7
Nobleborough,Valid,Eucrite-pmict,2300.0,Fell,1823,44.08333,-69.48333
Noblesville,Valid,H4-6,483.7,Fell,1991,40.08528,-86.055
Nogata,Valid,L6,472.0,Fell,0860,33.725,130.75
Nogoya,Valid,CM2,4000.0,Fell,1879,-32.36667,-59.83333
Norfork,Valid,"Iron, IIIAB",1050.0,Fell,1918,36.21667,-92.26667
Norton County,Valid,Aubrite,1100000.0,Fell,1948,39.68333,-99.86667
Noventa Vicentina,Valid,H4,177.0,Fell,1971,45.29167,11.52722
Novo-Urei,Valid,Ureilite,1900.0,Fell,1886,54.81667,46.0
Novy-Ergi,Valid,Stone-uncl,,Fell,1662,58.55,31.33333
Novy-Projekt,Valid,OC,1001.0,Fell,1908,56.0,22.0
Noyan-Bogdo,Valid,L6,250.0,Fell,1933,42.91667,102.46667
Nuevo Mercurio,Valid,H5,50000.0,Fell,1978,24.3,-102.13333
Nulles,Valid,H6,5000.0,Fell,1851,41.63333,0.75
Numakai,Valid,H4,363.0,Fell,1925,43.33333,141.86667
Nyaung,Valid,"Iron, IIIAB",737.6,Fell,1939,21.20833,94.91667
Nyirábrany,Valid,LL5,1100.0,Fell,1914,47.55,22.025
Ochansk,Valid,H4,500000.0,Fell,1887,57.78333,55.26667
Oesede,Valid,H5,1400.0,Fell,1927,52.28333,8.05
Oesel,Valid,L6,6000.0,Fell,1855,58.5,23.0
Ofehértó,Valid,L6,3750.0,Fell,1900,47.88333,22.03333
Ogi,Valid,H6,14360.0,Fell,1741,33.28333,130.2
Ohaba,Valid,H5,16250.0,Fell,1857,46.06667,23.58333
Ohuma,Valid,L5,7700.0,Fell,1963,6.75,8.5
Ojuelos Altos,Valid,L6,5850.0,Fell,1926,38.18333,-5.4
Okabe,Valid,H5,194.0,Fell,1958,36.18333,139.21667
Okano,Valid,"Iron, IIAB",4742.0,Fell,1904,35.08333,135.2
Okniny,Valid,LL6,12000.0,Fell,1834,50.83333,25.5
Oldenburg (1930),Valid,L6,16570.0,Fell,1930,52.95,8.16667
Oliva-Gandia,Valid,Stone-uncl,,Fell,1519,39.0,-0.03333
Olivenza,Valid,LL5,150000.0,Fell,1924,38.71667,-7.06667
Olmedilla de Alarcón,Valid,H5,40000.0,Fell,1929,39.56667,-2.1
Omolon,Valid,"Pallasite, PMG",250000.0,Fell,1981,64.02,161.80833
Orgueil,Valid,CI1,14000.0,Fell,1864,43.88333,1.38333
Orlando,Valid,Eucrite,180.0,Fell,2004,28.5475,-81.36222
Ornans,Valid,CO3.4,6000.0,Fell,1868,47.11667,6.15
Ortenau,Valid,Stone-uncl,4500.0,Fell,1671,48.5,8.0
Orvinio,Valid,H6,3400.0,Fell,1872,42.13333,12.93333
Oterøy,Valid,L6,246.0,Fell,1928,58.88333,9.4
Otomi,Valid,H,6510.0,Fell,1867,38.4,140.35
Ottawa,Valid,LL6,840.0,Fell,1896,38.6,-95.21667
Ouadangou,Valid,L5,4440.0,Fell,2003,12.9,0.08
Oued el Hadjar,Valid,LL6,1215.5,Fell,1986,30.18,-6.57717
Oum Dreyga,Valid,H3-5,17000.0,Fell,2003,24.3,-13.1
Ourique,Valid,H4,20000.0,Fell,1998,37.60833,-8.28
Ovambo,Valid,L6,121.5,Fell,1900,-18.0,16.0
Oviedo,Valid,H5,205.0,Fell,1856,43.4,-5.86667
Owrucz,Valid,OC,,Fell,1775,51.33333,28.83333
Pacula,Valid,L6,3400.0,Fell,1881,21.05,-99.3
Padvarninkai,Valid,Eucrite-mmict,3858.0,Fell,1929,55.66667,25.0
Paitan,Valid,H6,515.0,Fell,1910,17.74333,120.45583
Palahatchie,Valid,OC,,Fell,1910,32.31667,-89.71667
Palca de Aparzo,Valid,L5,1430.0,Fell,1988,-23.11667,-65.1
Palinshih,Valid,Iron,18000.0,Fell,1914,43.48333,118.61667
Palmyra,Valid,L3,135.0,Fell,1926,39.8,-91.5
Palolo Valley,Valid,H5,682.0,Fell,1949,21.3,-157.78333
Pampanga,Valid,L5,10500.0,Fell,1859,15.08333,120.7
Pantar,Valid,H5,2130.0,Fell,1938,8.06667,124.28333
Paragould,Valid,LL5,408000.0,Fell,1930,36.06667,-90.5
Parambu,Valid,LL5,2000.0,Fell,1967,-6.23333,-40.7
Paranaiba,Valid,L6,100000.0,Fell,1956,-19.13333,-51.66667
Park Forest,Valid,L5,18000.0,Fell,2003,41.48472,-87.67917
Parnallee,Valid,LL3.6,77600.0,Fell,1857,9.23333,78.35
Parsa,Valid,EH3,800.0,Fell,1942,26.2,85.4
Pasamonte,Valid,Eucrite-pmict,5100.0,Fell,1933,36.21667,-103.4
Patora,Valid,H6,4375.0,Fell,1969,20.93694,82.05
Patrimonio,Valid,L6,2121.0,Fell,1950,-19.53333,-48.56667
Patti,Valid,Iron,12.0,Fell,1922,38.13333,14.96667
Patwar,Valid,Mesosiderite-A1,37350.0,Fell,1935,23.15,91.18333
Pavel,Valid,H5,2968.0,Fell,1966,43.46667,25.51667
Pavlodar (stone),Valid,H5,142.5,Fell,1938,52.3,77.03333
Pavlograd,Valid,L6,40000.0,Fell,1826,48.53333,35.98333
Pavlovka,Valid,Howardite,2000.0,Fell,1882,52.03333,43.0
Pê,Valid,L6,,Fell,1989,11.33367,-3.54217
Peace River,Valid,L6,45760.0,Fell,1963,56.13333,-117.93333
Peckelsheim,Valid,Diogenite-pm,117.8,Fell,1953,51.66667,9.25
Peekskill,Valid,H6,12570.0,Fell,1992,41.28333,-73.91667
Peña Blanca Spring,Valid,Aubrite,70000.0,Fell,1946,30.125,-103.11667
Peramiho,Valid,Eucrite-mmict,165.0,Fell,1899,-10.66667,35.5
Perpeti,Valid,L6,23474.0,Fell,1935,23.325,91.0
Perth,Valid,LL5,2.0,Fell,1830,56.4,-3.43333
Pervomaisky,Valid,L6,66000.0,Fell,1933,56.63333,39.43333
Pesyanoe,Valid,Aubrite,3393.0,Fell,1933,55.5,66.08333
Pétèlkolé,Valid,H5,189.0,Fell,1995,14.052,0.42
Petersburg,Valid,Eucrite-pmict,1800.0,Fell,1855,35.3,-86.63333
Pettiswood,Valid,Stone-uncl,,Fell,1779,53.53333,-7.33333
Phillips County (stone),Valid,L6,57900.0,Fell,1901,40.0,-99.25
Phu Hong,Valid,H4,500.0,Fell,1887,11.25,108.58333
Phum Sambo,Valid,H4,7800.0,Fell,1933,12.0,105.48333
Phuoc-Binh,Valid,L5,11000.0,Fell,1941,15.71667,108.1
Piancaldoli,Valid,LL3.4,13.1,Fell,1968,44.24417,11.50222
Picote,Valid,Stone-uncl,,Fell,1843,41.36667,-6.23333
Pillistfer,Valid,EL6,23250.0,Fell,1863,58.66667,25.73333
Piplia Kalan,Valid,Eucrite-mmict,42000.0,Fell,1996,26.03472,73.94167
Piquetberg,Valid,H,37.0,Fell,1881,-32.86667,18.71667
Pirgunje,Valid,L6,842.0,Fell,1882,25.8,88.45
Pirthalla,Valid,H6,1161.0,Fell,1884,29.58333,76.0
Pitts,Valid,"Iron, IAB-ung",3760.0,Fell,1921,31.95,-83.51667
Plantersville,Valid,H6,2085.0,Fell,1930,30.7,-96.11667
Pleşcoi,Valid,L5-6,6913.0,Fell,2008,45.275,26.70972
Ploschkovitz,Valid,L5,39.0,Fell,1723,50.53333,14.11667
Pnompehn,Valid,L6,96.0,Fell,1868,11.58333,104.91667
Pohlitz,Valid,L5,3000.0,Fell,1819,50.93333,12.13333
Pokhra,Valid,H5,350.0,Fell,1866,26.71667,82.66667
Pollen,Valid,CM2,253.6,Fell,1942,66.34833,14.015
Pontlyfni,Valid,Winonaite,157.0,Fell,1931,53.03639,-4.31944
Portales Valley,Valid,H6,71400.0,Fell,1998,34.175,-103.295
Portugal,Valid,Stone-uncl,4500.0,Fell,1796,38.5,-8.0
Po-wang Chen,Valid,LL,665.0,Fell,1933,31.41667,118.5
Prambachkirchen,Valid,L6,2125.0,Fell,1932,48.3025,13.94083
Pribram,Valid,H5,5555.0,Fell,1959,49.66667,14.03333
Pricetown,Valid,L6,900.0,Fell,1893,39.11667,-83.85
Puerto Lápice,Valid,Eucrite-br,500.0,Fell,2007,39.35,-3.51667
Pulsora,Valid,H5,560.0,Fell,1863,23.36667,75.18333
Pultusk,Valid,H5,250000.0,Fell,1868,52.76667,21.26667
Punganaru,Valid,Stone-uncl,100.0,Fell,1811,13.33333,78.95
Putinga,Valid,L6,300000.0,Fell,1937,-29.03333,-53.05
Qidong,Valid,L/LL5,1275.0,Fell,1982,32.08333,121.5
Qingzhen,Valid,EH3,2600.0,Fell,1976,26.53333,106.46667
Queen's Mercy,Valid,H6,7000.0,Fell,1925,-30.11667,28.7
Quenggouk,Valid,H4,6045.0,Fell,1857,17.76667,95.18333
Quesa,Valid,"Iron, IAB-ung",10750.0,Fell,1898,39.0,-0.66667
Quija,Valid,H,17450.0,Fell,1990,44.61667,126.13333
Quincay,Valid,L6,65.0,Fell,1851,46.6,0.25
Raco,Valid,H5,5000.0,Fell,1957,-26.66667,-65.45
Raghunathpura,Valid,"Iron, IIAB",10200.0,Fell,1986,27.72528,76.465
Rahimyar Khan,Valid,L5,67225.0,Fell,1983,28.225,70.2
Rakovka,Valid,L6,9000.0,Fell,1878,52.98333,37.03333
Ramnagar,Valid,L6,3766.0,Fell,1940,26.45,82.9
Rampurhat,Valid,LL,100.0,Fell,1916,24.16667,87.76667
Ramsdorf,Valid,L6,4682.0,Fell,1958,51.88333,6.93333
Ranchapur,Valid,H4,290.4,Fell,1917,23.98333,87.08333
Rancho de la Presa,Valid,H5,300.0,Fell,1899,19.86667,-100.81667
Rangala,Valid,L6,3224.5,Fell,1937,25.38333,72.01667
Raoyang,Valid,L6,4910.0,Fell,1919,38.2,115.7
Ras Tanura,Valid,H6,6.1,Fell,1961,26.66667,50.15
Rasgrad,Valid,Stone-uncl,24700.0,Fell,1740,43.5,26.53333
Ratyn,Valid,Stone-uncl,910.0,Fell,1880,52.2,17.98333
Red Canyon Lake,Valid,H5,18.41,Fell,2007,38.13742,-119.75812
Reliegos,Valid,L5,17300.0,Fell,1947,42.475,-5.33333
Rembang,Valid,"Iron, IVA",10000.0,Fell,1919,-6.73333,111.36667
Renazzo,Valid,CR2,1000.0,Fell,1824,44.76667,11.28333
Renca,Valid,L5,300.0,Fell,1925,-32.75,-65.28333
Renqiu,Valid,L6,355.0,Fell,1916,38.66667,116.13333
Repeev Khutor,Valid,"Iron, IIF",7000.0,Fell,1933,48.6,45.66667
Revelstoke,Valid,CI1,1.0,Fell,1965,51.33333,-118.95
Rewari,Valid,L6,3332.0,Fell,1929,28.2,76.66667
Rich Mountain,Valid,L6,668.0,Fell,1903,35.03333,-83.03333
Uzcudun,Valid,L,20000.0,Fell,1948,-44.11667,-66.15
Richardton,Valid,H5,90000.0,Fell,1918,46.88333,-102.31667
Richland Springs,Valid,OC,1900.0,Fell,1980,31.25,-99.03333
Richmond,Valid,LL5,1800.0,Fell,1828,37.46667,-77.5
Rio Negro,Valid,L4,1310.0,Fell,1934,-26.1,-49.8
Rivolta de Bassi,Valid,Stone-uncl,103.3,Fell,1490,45.48333,9.51667
Rochester,Valid,H6,340.0,Fell,1876,41.08333,-86.28333
Rockhampton,Valid,Stone-uncl,1641.0,Fell,1895,-23.38333,150.51667
Roda,Valid,Diogenite,400.0,Fell,1871,42.3,0.55
Rodach,Valid,Stone-uncl,2900.0,Fell,1775,50.35,10.8
Rose City,Valid,H5,10600.0,Fell,1921,44.51667,-83.95
Rowton,Valid,"Iron, IIIAB",3500.0,Fell,1876,52.76667,-2.51667
Ruhobobo,Valid,L6,465.5,Fell,1976,-1.45,29.83333
Rumuruti,Valid,R3.8-6,67.0,Fell,1934,0.26667,36.53333
Rupota,Valid,L4-6,6000.0,Fell,1949,-10.26667,38.76667
Ryechki,Valid,L5,13000.0,Fell,1914,51.13333,34.5
Sabetmahet,Valid,H5,1250.0,Fell,1855,27.43333,82.08333
Sabrum,Valid,LL6,478.0,Fell,1999,23.08333,91.66667
Sagan,Valid,Stone-uncl,,Fell,1636,51.53333,14.88333
Saint-Sauveur,Valid,EH5,14000.0,Fell,1914,43.73333,1.38333
Saint-Séverin,Valid,LL6,271000.0,Fell,1966,45.3,0.23333
Sakauchi,Valid,Iron,4180.0,Fell,1913,35.66667,136.3
Salem,Valid,L6,61.4,Fell,1981,44.97917,-122.96944
Salles,Valid,L5,9000.0,Fell,1798,46.05,4.63333
Salzwedel,Valid,LL5,43.0,Fell,1985,52.75,11.05
Samelia,Valid,"Iron, IIIAB",2462.0,Fell,1921,25.66667,74.86667
San Juan Capistrano,Valid,H6,56.0,Fell,1973,33.48472,-117.6625
San Michele,Valid,L6,237.0,Fell,2002,43.66667,13.0
San Pedro de Quiles,Valid,L6,282.0,Fell,1956,-31.01667,-71.4
San Pedro Jacuaro,Valid,LL6,460.0,Fell,1968,19.76667,-100.65
Santa Barbara,Valid,L4,400.0,Fell,1873,-29.2,-51.86667
Santa Cruz,Valid,CM2,60.0,Fell,1939,24.16667,-99.33333
Santa Isabel,Valid,L6,5500.0,Fell,1924,-33.9,-61.7
Santa Lucia (2008),Valid,L6,4000.0,Fell,2008,-31.535556,-68.489444
São Jose do Rio Preto,Valid,H4,927.0,Fell,1962,-20.81,-49.38056
Saratov,Valid,L4,200000.0,Fell,1918,52.55,46.55
Sasagase,Valid,H,695.0,Fell,1688,34.71667,137.78333
Sauguis,Valid,L6,4000.0,Fell,1868,43.15,-0.85
Savtschenskoje,Valid,LL4,2500.0,Fell,1894,47.21667,29.86667
Sayama,Valid,CM2,430.0,Fell,1986,35.86667,139.4
Sazovice,Valid,L5,412.0,Fell,1934,49.23333,17.56667
Schellin,Valid,L,7000.0,Fell,1715,53.35,15.05
Schenectady,Valid,H5,283.3,Fell,1968,42.86083,-73.95028
Schönenberg,Valid,L6,8000.0,Fell,1846,48.11667,10.46667
Searsmont,Valid,H5,5400.0,Fell,1871,44.36667,-69.2
Sediköy,Valid,L6,240.0,Fell,1917,38.3,27.13333
Segowlie,Valid,LL6,6930.0,Fell,1853,26.75,84.78333
Selakopi,Valid,H5,1590.0,Fell,1939,-7.23333,107.33333
Seldebourak,Valid,H5,150.0,Fell,1947,22.83333,4.98333
Semarkona,Valid,LL3.00,691.0,Fell,1940,22.25,79.0
Sena,Valid,H4,4000.0,Fell,1773,41.71667,-0.05
Senboku,Valid,H6,866.0,Fell,1993,39.43833,140.51167
Seoni,Valid,H6,20000.0,Fell,1966,21.68389,79.50083
Seres,Valid,H4,8500.0,Fell,1818,41.05,23.56667
Serra de Magé,Valid,Eucrite-cm,1800.0,Fell,1923,-8.38333,-36.76667
Sete Lagoas,Valid,H4,350.0,Fell,1908,-19.46667,-44.21667
Sevilla,Valid,LL4,180.0,Fell,1862,37.41667,-6.0
Sevrukovo,Valid,L5,101000.0,Fell,1874,50.61667,36.6
Sfax,Valid,L6,7000.0,Fell,1989,34.75,10.71667
Shalka,Valid,Diogenite,4000.0,Fell,1850,23.1,87.3
Sharps,Valid,H3.4,1265.0,Fell,1921,37.83333,-76.7
Shelburne,Valid,L5,18600.0,Fell,1904,44.05,-80.16667
Shergotty,Valid,Martian (shergottite),5000.0,Fell,1865,24.55,84.83333
Sheyang,Valid,L6,605.0,Fell,1976,33.65,120.06667
Shikarpur,Valid,L6,3679.7,Fell,1921,25.85,87.5775
Shuangyang,Valid,H5,3900.0,Fell,1971,43.5,125.66667
Shupiyan,Valid,H6,5000.0,Fell,1912,33.71667,74.83333
Shytal,Valid,L6,3200.0,Fell,1863,24.33333,90.16667
Siena,Valid,LL5,3700.0,Fell,1794,43.11667,11.6
Sikhote-Alin,Valid,"Iron, IIAB",23000000.0,Fell,1947,46.16,134.65333
Silao,Valid,H5,1710.0,Fell,1995,20.93333,-101.38333
Silistra,Valid,Achondrite-ung,0.15,Fell,1917,44.11667,27.26667
Simmern,Valid,H5,1222.0,Fell,1920,49.98333,7.53333
Sinai,Valid,L6,1455.0,Fell,1916,30.9,32.48333
Sindhri,Valid,H5,8400.0,Fell,1901,26.21667,69.55
Sinnai,Valid,H6,2000.0,Fell,1956,39.3,9.2
Sioux County,Valid,Eucrite-mmict,4100.0,Fell,1933,42.58333,-103.66667
Sitathali,Valid,H5,1600.0,Fell,1875,20.91667,82.58333
Sivas,Valid,H6,40000.0,Fell,1989,39.82467,36.13583
Sixiangkou,Valid,L5,630.0,Fell,1989,32.43333,119.86667
Ski,Valid,L6,850.0,Fell,1848,59.73333,10.86667
Slavetic,Valid,H5,1708.0,Fell,1868,45.68333,15.6
Slobodka,Valid,L4,2750.0,Fell,1818,55.0,35.0
Soheria,Valid,OC,72.9,Fell,1960,27.13333,84.06667
Soko-Banja,Valid,LL4,80000.0,Fell,1877,43.66667,21.86667
Sologne,Valid,H5,54.0,Fell,1860,47.36667,1.73333
Sołtmany,Valid,L6,1066.0,Fell,2011,54.00883,22.005
Sone,Valid,H5,17100.0,Fell,1866,35.16667,135.33333
Songyuan,Valid,L6,36900.0,Fell,1993,45.25,125.0
Sopot,Valid,OC,958.0,Fell,1927,44.41667,23.5
Soroti,Valid,"Iron, ungrouped",2050.0,Fell,1945,1.7,33.63333
St. Caprais-de-Quinsac,Valid,L6,360.0,Fell,1883,44.75,0.05
St. Christophe-la-Chartreuse,Valid,L6,5500.0,Fell,1841,46.95,-1.5
St. Denis Westrem,Valid,L6,700.0,Fell,1855,51.05,3.75
St. Germain-du-Pinel,Valid,H6,4000.0,Fell,1890,48.01667,-1.15
St. Louis,Valid,H4,1000.0,Fell,1950,38.7,-90.23333
St. Mark's,Valid,EH5,13780.0,Fell,1903,-32.01667,27.41667
St. Mary's County,Valid,LL3.3,24.3,Fell,1919,38.16667,-76.38333
St. Mesmin,Valid,LL6,8300.0,Fell,1866,48.45,3.93333
St. Michel,Valid,L6,17000.0,Fell,1910,61.65,27.2
St.-Chinian,Valid,L6,134.3,Fell,1959,43.43333,2.95
Ställdalen,Valid,H5,34000.0,Fell,1876,59.93333,14.95
Stannern,Valid,Eucrite-mmict,52000.0,Fell,1808,49.28333,15.56667
Stavropol,Valid,L6,1500.0,Fell,1857,45.05,41.98333
Ste. Marguerite,Valid,H4,4960.0,Fell,1962,50.76667,3.0
Sterlitamak,Valid,"Iron, IIIAB",325000.0,Fell,1990,53.66667,55.98333
Stolzenau,Valid,Stone-uncl,,Fell,1647,52.53333,9.05
Stratford,Valid,L6,50.0,Fell,1974,41.2,-73.13333
Strathmore,Valid,L6,13400.0,Fell,1917,56.58333,-3.25
Stretchleigh,Valid,Stone-uncl,10400.0,Fell,1623,50.38333,-3.95
St-Robert,Valid,H5,25400.0,Fell,1994,45.96861,-72.97806
Success,Valid,L6,3500.0,Fell,1924,36.48333,-90.66667
Suchy Dul,Valid,L6,815.3,Fell,1969,50.53806,16.26333
Suizhou,Valid,L6,260000.0,Fell,1986,31.61667,113.46667
Sulagiri,Valid,LL6,110000.0,Fell,2008,12.66667,78.03333
Sultanpur,Valid,L/LL6,1710.5,Fell,1916,25.93333,84.28333
Sungach,Valid,H5,637.0,Fell,1935,44.86667,133.16667
Supuhee,Valid,H6,7235.0,Fell,1865,26.71667,84.21667
Sutter's Mill,Valid,C,992.5,Fell,2012,38.80389,-120.90806
Sylacauga,Valid,H4,5560.0,Fell,1954,33.18836,-86.2945
Tabor,Valid,H5,7540.0,Fell,1753,49.4,14.65
Tadjera,Valid,L5,9000.0,Fell,1867,36.18333,5.41667
Tagish Lake,Valid,C2-ung,10000.0,Fell,2000,59.70444,-134.20139
Tahara,Valid,H4/5,1000.0,Fell,1991,34.72,137.305
Takenouchi,Valid,H5,720.0,Fell,1880,35.38333,134.9
Tambakwatu,Valid,L6,10500.0,Fell,1975,-7.75,112.76667
Tamdakht,Valid,H5,100000.0,Fell,2008,31.16333,-7.015
Tané,Valid,L5,905.0,Fell,1918,35.43333,136.23333
Taonan,Valid,L5,3850.0,Fell,1965,45.4,122.9
Tatahouine,Valid,Diogenite,12000.0,Fell,1931,32.95,10.41667
Tathlith,Valid,L6,2500.0,Fell,1967,19.38333,43.73333
Tauk,Valid,L6,6000.0,Fell,1929,35.13333,44.45
Tauti,Valid,L6,21000.0,Fell,1937,46.71667,23.5
Tenham,Valid,L6,160000.0,Fell,1879,-25.73333,142.95
Tennasilm,Valid,L4,28500.0,Fell,1872,58.03333,26.95
Thal,Valid,H6,342.0,Fell,1950,33.4,70.6
Thika,Valid,L6,14200.0,Fell,2011,-1.00278,37.15028
Thuathe,Valid,H4/5,45300.0,Fell,2002,-29.33333,27.58333
Tianzhang,Valid,H5,2232.0,Fell,1986,32.94667,118.99
Tieschitz,Valid,H/L3.6,28000.0,Fell,1878,49.6,17.11667
Tilden,Valid,L6,74800.0,Fell,1927,38.2,-89.68333
Tillaberi,Valid,L6,3000.0,Fell,1970,14.25,1.53333
Timochin,Valid,H5,65500.0,Fell,1807,54.5,35.2
Tirupati,Valid,H6,230.0,Fell,1934,13.63333,79.41667
Tissint,Valid,Martian (shergottite),7000.0,Fell,2011,29.48195,-7.61123
Tjabe,Valid,H6,20000.0,Fell,1869,-7.08333,111.53333
Tjerebon,Valid,L5,16500.0,Fell,1922,-6.66667,106.58333
Tomakovka,Valid,LL6,600.0,Fell,1905,47.85,34.76667
Tomatlan,Valid,H6,900.0,Fell,1879,20.16667,-105.21667
Tomita,Valid,L,600.0,Fell,1916,34.5,133.75
Tomiya,Valid,H4/5,27.5,Fell,1984,38.36667,140.86556
Tonk,Valid,CI1,7.7,Fell,1911,24.65,76.86667
Torino,Valid,H6,977.0,Fell,1988,45.06667,7.66667
Torrington,Valid,H6,259.1,Fell,1944,42.06667,-104.16667
Toulouse,Valid,H6,1030.0,Fell,1812,43.6,1.4
Tounkin,Valid,OC,2000.0,Fell,1824,51.73333,102.53333
Tourinnes-la-Grosse,Valid,L6,14500.0,Fell,1863,50.78333,4.76667
Trebbin,Valid,LL6,1250.0,Fell,1988,52.21667,13.16667
Trenzano,Valid,H3/4,11800.0,Fell,1856,45.46667,10.0
Treysa,Valid,"Iron, IIIAB-an",63000.0,Fell,1916,50.91667,9.18333
Tromøy,Valid,H,357.4,Fell,1950,58.47333,8.86667
Troup,Valid,L6,1020.0,Fell,1917,32.16667,-95.1
Trysil,Valid,L/LL6,640.0,Fell,1927,61.3,12.3
Tsukuba,Valid,H5-6,800.0,Fell,1996,36.06333,140.145
Tuan Tuc,Valid,L6,13100.0,Fell,1921,9.66667,105.66667
Tugalin-Bulen,Valid,H6,10000.0,Fell,1967,45.46667,105.38333
Tulung Dzong,Valid,Stone-uncl,,Fell,1944,30.0,90.75
Turtle Lake,Valid,L5,89.3,Fell,1996,45.34583,-92.05167
Tuxtuac,Valid,LL5,30000.0,Fell,1975,21.66667,-103.36667
Tysnes Island,Valid,H4,19860.0,Fell,1884,60.0,5.61667
Tyumen,Valid,Iron,750.0,Fell,1903,57.16667,65.53333
Uberaba,Valid,H5,40000.0,Fell,1903,-19.81667,-48.78333
Ucera,Valid,H5,4590.0,Fell,1970,11.05,-69.85
Uchkuduk,Valid,L6,1000.0,Fell,1989,41.76667,62.51667
Udei Station,Valid,"Iron, IAB-ung",103000.0,Fell,1927,7.95,8.08333
Uden,Valid,LL7,710.0,Fell,1840,51.65,5.61667
Udipi,Valid,H5,3600.0,Fell,1866,13.48333,74.78333
Ufana,Valid,EL6,189.2,Fell,1957,-4.26667,35.35
Ulmiz,Valid,L,76.5,Fell,1926,46.93333,7.21667
Umbala,Valid,LL5,100.0,Fell,1822,30.33333,76.33333
Umm Ruaba,Valid,L5,1700.0,Fell,1966,13.46667,31.21667
Undulung,Valid,L4,113.4,Fell,1986,66.13889,124.76667
Unkoku,Valid,OC,1000.0,Fell,1924,34.8,127.0
Urasaki,Valid,Stone-uncl,1500.0,Fell,1926,34.48333,133.28333
Usti Nad Orlici,Valid,L6,1269.0,Fell,1963,49.975,16.375
Utrecht,Valid,L6,9700.0,Fell,1843,52.11667,5.18333
Utzenstorf,Valid,H5,3422.0,Fell,1928,47.11667,7.55
Vago,Valid,H6,40.0,Fell,1668,45.41667,11.13333
Valdavur,Valid,H6,2799.0,Fell,1944,11.98333,79.75
Valdinizza,Valid,L6,1004.0,Fell,1903,44.86667,9.15
Valdinoce,Valid,Stone-uncl,,Fell,1495,44.06667,12.1
Valera,Valid,L5,50000.0,Fell,1972,9.31667,-70.62833
Varre-Sai,Valid,L5,2500.0,Fell,2010,-20.85001,-41.73356
Vavilovka,Valid,LL6,1932.0,Fell,1876,46.15,32.83333
Vengerovo,Valid,H5,10800.0,Fell,1950,56.13333,77.26667
Veramin,Valid,Mesosiderite-B2,54000.0,Fell,1880,35.33333,51.63333
Verkhne Tschirskaia,Valid,H5,8000.0,Fell,1843,48.41667,43.2
Vernon County,Valid,H6,1500.0,Fell,1865,43.5,-91.16667
Vetluga,Valid,Eucrite-mmict,750.0,Fell,1949,57.8,45.8
Vigarano,Valid,CV3,15000.0,Fell,1910,44.85,11.4
Villalbeto de la Peña,Valid,L6,3500.0,Fell,2004,42.8,-4.66667
Villarrica,Valid,Stone-uncl,,Fell,1925,-25.83333,-56.5
Vilna,Valid,L5,0.1,Fell,1967,54.225,-111.69167
Virba,Valid,L6,3600.0,Fell,1873,43.53333,22.63333
Vishnupur,Valid,LL4-6,2437.0,Fell,1906,23.1,87.43333
Vissannapeta,Valid,Eucrite-cm,1303.8,Fell,1997,16.83333,80.75
Visuni,Valid,H6,594.0,Fell,1915,25.45,70.0
Vouillé,Valid,L6,20000.0,Fell,1831,46.63333,0.16667
Walters,Valid,L6,28100.0,Fell,1946,34.33333,-98.3
Warrenton,Valid,CO3.7,1600.0,Fell,1877,38.68333,-91.15
Washougal,Valid,Howardite,225.0,Fell,1939,45.58333,-122.35
Werdama,Valid,H5,4000.0,Fell,2006,32.79732,21.78713
Wessely,Valid,H5,3750.0,Fell,1831,48.95,17.38333
Weston,Valid,H4,150000.0,Fell,1807,41.266667,-73.266667
Wethersfield (1971),Valid,L6,350.0,Fell,1971,41.7,-72.65
Wethersfield (1982),Valid,L6,2756.0,Fell,1982,41.71056,-72.67361
Whetstone Mountains,Valid,H5,2138.74,Fell,2009,31.96185,-110.434183
Wiluna,Valid,H5,150000.0,Fell,1967,-26.59278,120.32833
Witklip Farm,Valid,H5,22.0,Fell,1918,-26.0,30.0
Witsand Farm,Valid,LL4,66.0,Fell,1932,-28.66667,18.91667
Wittekrantz,Valid,L5,2200.0,Fell,1880,-32.5,23.0
Wolamo,Valid,OC,166.4,Fell,1964,9.0,39.0
Wold Cottage,Valid,L6,25000.0,Fell,1795,54.13667,-0.41333
Woolgorong,Valid,L6,36000.0,Fell,1960,-27.75,115.83333
Worden,Valid,L5,1551.0,Fell,1997,42.38467,-83.6115
Wuan,Valid,H6,50000.0,Fell,1986,36.75,114.25
Wuzhi,Valid,Stone-uncl,,Fell,1931,35.13333,113.33333
Xi Ujimgin,Valid,L/LL6-an,5900.0,Fell,1980,44.66667,117.5
Xingyang,Valid,H6,75500.0,Fell,1977,32.33333,114.31667
Yafa,Valid,H5,5700.0,Fell,2000,13.71111,45.17
Yambo,Valid,H5,4.0,Fell,1951,1.0,22.5
Yangchiang,Valid,H5,20000.0,Fell,1954,21.83333,111.83333
Yanzhuang,Valid,H6,3500.0,Fell,1990,24.56667,114.16667
Yardymly,Valid,"Iron, IAB complex",150200.0,Fell,1959,38.93333,48.25
Yatoor,Valid,H5,13600.0,Fell,1852,14.3,79.76667
Yonozu,Valid,H4/5,31650.0,Fell,1837,37.75,139.0
Yorktown (New York),Valid,L5,250.0,Fell,1869,41.28333,-73.81667
Yoshiki,Valid,Stone-uncl,0.1,Fell,1928,34.16667,131.45
Yukan,Valid,LL6,4800.0,Fell,1931,28.71667,116.61667
Yurtuk,Valid,Howardite,1472.0,Fell,1936,47.31667,35.36667
Zaborzika,Valid,L6,3867.0,Fell,1818,50.28333,27.68333
Zabrodje,Valid,L6,3000.0,Fell,1893,55.18333,27.91667
Zag,Valid,H3-6,175000.0,Fell,1998,27.33333,-9.33333
Zagami,Valid,Martian (shergottite),18000.0,Fell,1962,11.73333,7.08333
Zaisan,Valid,H5,463.0,Fell,1963,47.5,83.0
Zaisho,Valid,"Pallasite, PMG-an",330.0,Fell,1898,33.7,133.8
Zaoyang,Valid,H5,14250.0,Fell,1984,32.3,112.75
Zavetnoe,Valid,L6,800.0,Fell,1952,47.13333,43.9
Zavid,Valid,L6,95000.0,Fell,1897,44.4,19.11667
Zebrak,Valid,H5,2000.0,Fell,1824,49.88333,13.91667
Zemaitkiemis,Valid,L6,44100.0,Fell,1933,55.3,25.0
Zhaodong,Valid,L4,42000.0,Fell,1984,45.81667,125.91667
Zhovtnevyi,Valid,H6,107000.0,Fell,1938,47.58333,37.25
Zhuanghe,Valid,H5,2900.0,Fell,1976,39.66667,122.98333
Zmenj,Valid,Howardite,246.0,Fell,1858,51.83333,26.83333
Zomba,Valid,L6,7500.0,Fell,1899,-15.18333,35.28333
Zsadany,Valid,H5,552.0,Fell,1875,46.93333,21.5
Zvonkov,Valid,H6,2568.0,Fell,1955,50.2,30.25
Abajo,Valid,H5,331.0,Found,1982,26.8,-105.41667
Abar al' Uj 001,Valid,H3.8,194.34,Found,2008,22.72192,48.95937
Abbott,Valid,H3-6,21100.0,Found,1951,36.3,-104.28333
Abernathy,Valid,L6,2914.0,Found,1941,33.85,-101.8
Abo,Valid,H,1.2,Found,1840,60.43333,22.3
Abu Moharek,Valid,H4,4500.0,Found,1997,27.23944,29.83583
Acfer 001,Valid,L6,6700.0,Found,1989,27.5,3.61667
Acfer 002,Valid,H5,228.0,Found,1989,27.61667,3.85
Acfer 003,Valid,H5,145.0,Found,1989,27.81667,4.03333
Acfer 004,Valid,L6,1020.0,Found,1989,27.58333,3.81667
Acfer 005,Valid,H3.9/4,115.0,Found,1989,27.6,3.83333
Acfer 006,Valid,H3.9/4,561.0,Found,1989,27.63333,3.96667
Acfer 007,Valid,L5,542.0,Found,1989,27.51667,3.65
Acfer 008,Valid,H5,205.0,Found,1989,27.53333,3.7
Acfer 009,Valid,L6,127.0,Found,1989,27.73333,4.08333
Acfer 010,Valid,L6,276.0,Found,1989,27.75,4.1
Acfer 011,Valid,H5,3800.0,Found,1989,27.75,4.16667
Acfer 012,Valid,H6,98.0,Found,1989,27.8,4.16667
Acfer 013,Valid,H5,490.0,Found,1989,27.83333,4.28333
Acfer 014,Valid,H5,307.0,Found,1989,27.8,4.46667
Acfer 015,Valid,L6,98.0,Found,1989,27.78333,4.28333
Acfer 016,Valid,H4-5,111.0,Found,1989,27.71667,4.48333
Acfer 017,Valid,L5,446.0,Found,1989,27.73333,4.4
Acfer 018,Valid,H5,207.0,Found,1989,27.7,4.08333
Acfer 019,Valid,L6,581.0,Found,1989,27.7,4.06667
Acfer 020,Valid,H5,708.0,Found,1989,27.7,4.06667
Acfer 021,Valid,H6,2140.0,Found,1989,27.55,3.61667
Acfer 022,Valid,H3.7,192.0,Found,1989,27.51667,3.83333
Acfer 023,Valid,H3.8,118.0,Found,1989,27.51667,3.91667
Acfer 024,Valid,H5,1464.0,Found,1989,27.55,3.93333
Acfer 025,Valid,H5,920.0,Found,1989,27.58333,3.96667
Acfer 026,Valid,H5/6,88.0,Found,1989,27.61667,4.05
Acfer 027,Valid,H5,206.0,Found,1989,27.66667,4.2
Acfer 028,Valid,H3.8,3130.0,Found,1989,27.66667,4.25
Acfer 029,Valid,H4,98.0,Found,1989,27.68333,4.33333
Acfer 030,Valid,LL6,123.0,Found,1989,27.68333,4.41667
Acfer 031,Valid,H5,2016.0,Found,1989,27.66667,4.35
Acfer 032,Valid,L6,495.0,Found,1989,27.65,4.46667
Acfer 033,Valid,L6,93.0,Found,1989,27.65,4.43333
Acfer 034,Valid,L6,184.0,Found,1989,27.63333,4.35
Acfer 035,Valid,H6,36.0,Found,1989,27.6,4.3
Acfer 036,Valid,L5/6,112.0,Found,1989,27.58333,4.25
Acfer 037,Valid,LL4-6,385.0,Found,1989,27.55,4.13333
Acfer 038,Valid,H5,962.0,Found,1989,27.53333,4.0
Acfer 039,Valid,L3.8,225.0,Found,1989,27.53333,3.91667
Acfer 040,Valid,L5-6,146.0,Found,1989,27.46667,3.78333
Acfer 041,Valid,L/LL6,134.0,Found,1989,27.43333,3.71667
Acfer 042,Valid,H5,246.0,Found,1989,27.46667,3.83333
Acfer 043,Valid,H4,120.0,Found,1989,27.51667,3.91667
Acfer 044,Valid,L6,195.0,Found,1989,27.55,4.0
Acfer 046,Valid,H5,1066.0,Found,1989,27.78333,4.7
Acfer 047,Valid,L4,1440.0,Found,1989,27.83333,4.7
Acfer 048,Valid,H4-5,115.0,Found,1989,27.55,4.08333
Acfer 049,Valid,H5,82.9,Found,1989,27.41667,3.71667
Acfer 050,Valid,H6,1394.0,Found,1989,27.65,4.5
Acfer 051,Valid,L5,905.0,Found,1989,27.61667,4.41667
Acfer 052,Valid,L5,58.0,Found,1989,27.75,4.15
Acfer 053,Valid,H6,1937.0,Found,1989,27.73333,4.05
Acfer 054,Valid,H5,2051.0,Found,1989,27.7,3.93333
Acfer 055,Valid,H5,1338.0,Found,1989,27.5,3.98333
Acfer 056,Valid,L4,129.0,Found,1989,27.46667,3.88333
Acfer 058,Valid,LL5-6,277.0,Found,1989,27.38333,3.71667
Acfer 059,Valid,CR2,281.0,Found,1989,27.51667,4.06667
Acfer 060,Valid,H4,226.0,Found,1989,27.56667,4.16667
Acfer 061,Valid,H4-5,105.0,Found,1989,27.6,4.25
Acfer 062,Valid,H5,283.0,Found,1989,27.6,4.41667
Acfer 063,Valid,Mesosiderite,716.0,Found,1989,27.61667,4.56667
Acfer 064,Valid,L5,854.0,Found,1989,27.61667,4.56667
Acfer 065,Valid,H4-5,1539.0,Found,1989,27.5,4.28333
Acfer 066,Valid,LL3.8-6,517.0,Found,1990,27.63333,4.06667
Acfer 067,Valid,H5,383.0,Found,1990,27.71667,4.78333
Acfer 068,Valid,L6,1805.0,Found,1990,27.55,3.7
Acfer 069,Valid,L6,941.0,Found,1990,27.53333,3.83333
Acfer 070,Valid,H4/5,138.0,Found,1990,27.68333,4.48333
Acfer 071,Valid,L6,1379.0,Found,1990,27.63333,4.28333
Acfer 072,Valid,L5/6,162.0,Found,1990,27.63333,4.25
Acfer 073,Valid,H5,2010.0,Found,1990,27.53333,3.85
Acfer 074,Valid,L6,384.0,Found,1990,27.48333,3.83333
Acfer 075,Valid,H5,1453.0,Found,1990,27.51667,3.73333
Acfer 076,Valid,H5,183.0,Found,1990,27.7,4.35
Acfer 077,Valid,L6,2538.0,Found,1990,27.63333,4.51667
Acfer 078,Valid,H5,105.0,Found,1990,27.56667,4.15
Acfer 079,Valid,L6,387.0,Found,1990,27.5,3.68333
Acfer 080,Valid,L3.9,574.0,Found,1990,27.63333,4.51667
Acfer 081,Valid,LL5-6,110.0,Found,1990,27.53333,3.86667
Acfer 082,Valid,CV3,208.0,Found,1990,27.5,3.48333
Acfer 083,Valid,L6,690.0,Found,1990,27.48333,3.63333
Acfer 084,Valid,H5,6300.0,Found,1990,27.55,3.86667
Acfer 085,Valid,H5,293.0,Found,1990,27.58333,3.95
Acfer 086,Valid,CV3,173.0,Found,1990,27.66667,4.18333
Acfer 087,Valid,CR2,163.0,Found,1990,27.7,4.26667
Acfer 088,Valid,L6,200.0,Found,1990,27.75,4.43333
Acfer 089,Valid,H5,682.0,Found,1990,27.63333,4.3
Acfer 090,Valid,H5,290.0,Found,1990,27.5,3.83333
Acfer 091,Valid,LL5-6,3487.0,Found,1990,27.45,4.11667
Acfer 092,Valid,H5,244.0,Found,1990,27.66667,4.51667
Acfer 093,Valid,L5,420.0,Found,1990,27.71667,4.13333
Acfer 094,Valid,C2-ung,82.0,Found,1990,27.73333,4.43333
Acfer 095,Valid,H3.7,104.0,Found,1990,27.71667,4.38333
Acfer 096,Valid,L4-5,572.0,Found,1990,27.61667,4.2
Acfer 097,Valid,CR2,63.0,Found,1990,27.51667,3.96667
Acfer 098,Valid,H5,5500.0,Found,1990,27.46667,3.88333
Acfer 099,Valid,H5,313.0,Found,1990,27.45,3.83333
Acfer 100,Valid,H6,140.0,Found,1990,27.46667,3.95
Acfer 101,Valid,L6,452.0,Found,1990,27.53333,4.16667
Acfer 102,Valid,L3-5,346.0,Found,1990,27.66667,4.46667
Acfer 103,Valid,H5,665.0,Found,1990,27.8,4.5
Acfer 104,Valid,H4/5,992.0,Found,1990,27.63333,4.36667
Acfer 105,Valid,L6,392.0,Found,1990,27.55,4.13333
Acfer 106,Valid,LL6,1390.0,Found,1990,27.5,3.9
Acfer 107,Valid,L6,105.0,Found,1990,27.45,3.75
Acfer 108,Valid,H6,828.0,Found,1990,27.5,3.88333
Acfer 109,Valid,H4/5,236.0,Found,1990,27.55,3.76667
Acfer 110,Valid,L6,107.0,Found,1990,27.48333,3.8
Acfer 111,Valid,H3-6,987.0,Found,1990,27.48333,3.8
Acfer 112,Valid,LL4/5,216.0,Found,1990,27.65,4.03333
Acfer 113,Valid,LL6,2906.0,Found,1990,27.56667,4.03333
Acfer 114,Valid,CR2,43.0,Found,1990,27.6,3.96667
Acfer 115,Valid,H6,287.0,Found,1990,27.73333,4.16667
Acfer 116,Valid,L6,345.0,Found,1990,27.73333,4.16667
Acfer 117,Valid,H4,178.0,Found,1990,27.73333,4.2
Acfer 118,Valid,L6,752.0,Found,1990,27.66667,4.2
Acfer 119,Valid,H3.8,121.0,Found,1990,27.65,4.23333
Acfer 120,Valid,LL6,861.0,Found,1990,27.65,4.3
Acfer 121,Valid,L5-6,427.0,Found,1990,27.68333,4.33333
Acfer 122,Valid,L4/5,235.0,Found,1990,27.5,3.66667
Acfer 123,Valid,H3.9,452.0,Found,1990,27.46667,3.76667
Acfer 124,Valid,LL5-6,542.0,Found,1990,27.6,4.05
Acfer 125,Valid,L6,3380.0,Found,1990,27.68333,4.35
Acfer 126,Valid,LL5-6,280.0,Found,1990,27.51667,3.8
Acfer 127,Valid,L6,699.0,Found,1990,27.7,4.3
Acfer 128,Valid,L6,163.0,Found,1990,27.5,4.3
Acfer 129,Valid,H3.7,162.0,Found,1990,27.6,4.2
Acfer 130,Valid,H5,400.0,Found,1990,27.58333,4.0
Acfer 131,Valid,LL6,171.0,Found,1990,27.58333,3.96667
Acfer 132,Valid,H6,1621.0,Found,1990,27.5,3.76667
Acfer 133,Valid,L3-5,362.0,Found,1990,27.5,3.83333
Acfer 134,Valid,L5,1161.0,Found,1990,27.76667,4.53333
Acfer 135,Valid,H5,124.0,Found,1990,27.55,4.03333
Acfer 136,Valid,H5,324.0,Found,1990,27.46667,4.05
Acfer 137,Valid,H4/5,106.0,Found,1990,27.58333,4.08333
Acfer 138,Valid,L5,941.0,Found,1990,27.66667,4.08333
Acfer 139,Valid,CR2,143.0,Found,1990,27.56667,4.08333
Acfer 140,Valid,L5,171.0,Found,1990,27.56667,4.08333
Acfer 141,Valid,H5,58.0,Found,1990,27.58333,3.85
Acfer 142,Valid,L5,91.0,Found,1990,27.56667,4.35
Acfer 143,Valid,L6,417.0,Found,1990,27.66667,4.45
Acfer 144,Valid,L6,186.0,Found,1990,27.66667,4.28333
Acfer 145,Valid,L6,869.0,Found,1990,27.66667,4.28333
Acfer 146,Valid,H5,200.0,Found,1990,27.63333,4.08333
Acfer 147,Valid,L6,140.0,Found,1990,27.6,4.11667
Acfer 148,Valid,H5,157.0,Found,1990,27.58333,4.06667
Acfer 149,Valid,L/LL6,394.0,Found,1990,27.58333,4.05
Acfer 150,Valid,H5,251.0,Found,1990,27.56667,3.81667
Acfer 151,Valid,H5,218.0,Found,1990,27.46667,3.71667
Acfer 152,Valid,H5,157.0,Found,1990,27.43333,3.75
Acfer 153,Valid,H3.6-6,211.0,Found,1990,27.53333,3.95
Acfer 154,Valid,H5,95.0,Found,1990,27.55,4.01667
Acfer 155,Valid,L6,206.0,Found,1990,27.66667,4.25
Acfer 156,Valid,L6,240.0,Found,1990,27.66667,4.23333
Acfer 157,Valid,L6,1072.0,Found,1990,27.66667,4.23333
Acfer 158,Valid,H4/5,422.0,Found,1990,27.66667,4.21667
Acfer 159,Valid,H3.8,123.0,Found,1990,27.5,3.93333
Acfer 160,Valid,LL3.8-6,433.0,Found,1990,27.46667,3.71667
Acfer 161,Valid,H5,604.0,Found,1990,27.75,4.43333
Acfer 162,Valid,H3-6,1281.0,Found,1990,27.66667,4.01667
Acfer 163,Valid,H3.8-5,125.0,Found,1990,27.7,4.35
Acfer 164,Valid,H5,43.0,Found,1990,27.53333,4.18333
Acfer 165,Valid,H5-6,84.0,Found,1990,27.56667,4.33333
Acfer 166,Valid,H3-5,2476.0,Found,1990,27.51667,4.23333
Acfer 167,Valid,L5,157.0,Found,1990,27.51667,4.0
Acfer 168,Valid,L6,211.0,Found,1990,27.6,3.98333
Acfer 169,Valid,H3.8/4,559.0,Found,1990,27.73333,4.11667
Acfer 171,Valid,H3.7,313.0,Found,1990,27.65,4.25
Acfer 172,Valid,L6,766.0,Found,1990,27.66667,4.16667
Acfer 173,Valid,H6,262.0,Found,1990,27.65,4.03333
Acfer 174,Valid,LL6,127.0,Found,1990,27.48333,3.86667
Acfer 175,Valid,LL5-6,153.0,Found,1990,27.48333,3.85
Acfer 176,Valid,LL5-6,320.0,Found,1990,27.48333,3.85
Acfer 177,Valid,LL5-6,721.0,Found,1990,27.48333,3.85
Acfer 178,Valid,H3.7,488.0,Found,1990,27.48333,3.75
Acfer 179,Valid,L6,163.0,Found,1990,27.46667,3.75
Acfer 180,Valid,H3.9-5,103.0,Found,1990,27.6,4.16667
Acfer 181,Valid,L6,245.0,Found,1990,27.66667,4.2
Acfer 182,Valid,CH3,166.0,Found,1990,27.7,4.35
Acfer 183,Valid,H5,114.0,Found,1990,27.58333,4.16667
Acfer 184,Valid,H5,311.0,Found,1990,27.56667,4.01667
Acfer 185,Valid,LL5,109.0,Found,1990,27.53333,3.83333
Acfer 186,Valid,CR2,315.0,Found,1990,27.46667,3.86667
Acfer 187,Valid,CR2,234.0,Found,1990,27.46667,3.9
Acfer 188,Valid,H3.9/4,252.0,Found,1990,27.58333,4.11667
Acfer 189,Valid,H6,53.0,Found,1990,27.6,4.18333
Acfer 190,Valid,L6,4439.0,Found,1990,27.7,4.3
Acfer 191,Valid,L6,188.0,Found,1990,27.7,4.3
Acfer 192,Valid,H3.9-5,219.0,Found,1990,27.65,4.2
Acfer 193,Valid,LL4-6,157.0,Found,1990,27.56667,3.95
Acfer 194,Valid,H5,361.0,Found,1991,27.49944,3.68889
Acfer 195,Valid,H6,233.0,Found,1991,27.52472,3.81139
Acfer 196,Valid,H5,29.0,Found,1991,27.57694,4.03389
Acfer 197,Valid,L6,115.0,Found,1991,27.55583,4.14
Acfer 198,Valid,H6,267.0,Found,1991,27.51694,3.79139
Acfer 199,Valid,L4,215.0,Found,1991,27.48028,3.85139
Acfer 200,Valid,H3-6,1301.0,Found,1991,27.50194,3.92111
Acfer 201,Valid,L5,55.0,Found,1991,27.59222,3.91806
Acfer 202,Valid,CO3.5,389.0,Found,1991,27.50889,4.60167
Acfer 203,Valid,H5,292.0,Found,1991,27.57806,4.36917
Acfer 204,Valid,H3,64.0,Found,1991,27.64639,3.98306
Acfer 205,Valid,H5,746.0,Found,1991,27.7375,4.32806
Acfer 206,Valid,H5,1229.0,Found,1991,27.69083,4.37861
Acfer 207,Valid,CH3,105.0,Found,1991,27.68806,4.37194
Acfer 208,Valid,LL5,510.0,Found,1991,27.50472,3.88194
Acfer 209,Valid,CR2,475.0,Found,1991,27.50472,3.88194
Acfer 210,Valid,H3.7,720.0,Found,1991,27.49722,3.87028
Acfer 211,Valid,H3.9,1009.0,Found,1991,27.46472,3.78167
Acfer 212,Valid,H5,1340.0,Found,1991,27.61278,3.71361
Acfer 213,Valid,L6,526.0,Found,1991,27.68111,4.30694
Acfer 214,Valid,CH3,612.0,Found,1991,27.69,4.37861
Acfer 215,Valid,L5,107.0,Found,1991,27.64028,4.17056
Acfer 216,Valid,L6,293.0,Found,1991,27.59972,4.90361
Acfer 217,Valid,R3.8-5,174.0,Found,1991,27.59444,3.88583
Acfer 218,Valid,L6,114.0,Found,1991,27.54472,3.74306
Acfer 219,Valid,H6,2611.0,Found,1991,27.52139,3.79139
Acfer 220,Valid,H5,117.0,Found,1991,27.52417,3.79694
Acfer 221,Valid,H5/6,812.0,Found,1991,27.5325,3.81361
Acfer 222,Valid,H5/6,334.0,Found,1991,27.54194,3.82778
Acfer 223,Valid,L/LL6,1398.0,Found,1991,27.54194,3.82778
Acfer 224,Valid,H5/6,85.0,Found,1991,27.63889,3.93444
Acfer 225,Valid,H3,255.0,Found,1991,27.64528,3.94389
Acfer 226,Valid,H5,221.0,Found,1991,27.68444,3.99389
Acfer 227,Valid,H6,78.0,Found,1991,27.66861,4.425
Acfer 228,Valid,L5,2285.0,Found,1991,27.57389,4.11972
Acfer 229,Valid,H5,325.0,Found,1991,27.82611,4.24611
Acfer 230,Valid,H5,69.0,Found,1991,27.74056,4.30833
Acfer 231,Valid,H4/5,218.0,Found,1991,27.73472,4.31611
Acfer 232,Valid,H5,725.0,Found,1991,27.73944,4.32833
Acfer 233,Valid,H5/6,242.0,Found,1991,27.71722,4.44806
Acfer 234,Valid,"Iron, IAB-ung",621.0,Found,1991,27.50111,4.09861
Acfer 235,Valid,H5,461.0,Found,1991,27.51889,4.01667
Acfer 236,Valid,LL6,81.0,Found,1991,27.51056,3.89111
Acfer 237,Valid,H3,673.0,Found,1991,27.49167,3.83278
Acfer 238,Valid,H4/5,311.0,Found,1991,27.50361,3.67306
Acfer 239,Valid,H6,160.0,Found,1991,27.48444,3.66639
Acfer 240,Valid,L6,342.0,Found,1991,27.49833,3.69444
Acfer 241,Valid,L6,86.0,Found,1991,27.51583,3.72722
Acfer 242,Valid,L6,318.0,Found,1991,27.52111,3.77333
Acfer 244,Valid,H6,2045.0,Found,1991,27.52472,3.80972
Acfer 245,Valid,H5,75.0,Found,1991,27.56389,3.92639
Acfer 246,Valid,L6,923.0,Found,1991,27.69222,3.32167
Acfer 247,Valid,L4,60.0,Found,1991,27.63611,4.03139
Acfer 248,Valid,L3.9/4,402.0,Found,1991,27.63556,4.02528
Acfer 249,Valid,H5/6,99.0,Found,1991,27.62167,3.95361
Acfer 250,Valid,H6,382.0,Found,1991,27.55139,3.74194
Acfer 251,Valid,LL5-6,202.0,Found,1991,27.50972,3.88056
Acfer 252,Valid,L6,146.0,Found,1991,27.51111,3.88444
Acfer 253,Valid,LL5-6,47.0,Found,1991,27.51361,3.89694
Acfer 254,Valid,L6,99.0,Found,1991,27.52222,3.94694
Acfer 255,Valid,L6,124.0,Found,1991,27.64611,4.39722
Acfer 256,Valid,H5/6,235.0,Found,1991,27.64611,4.39722
Acfer 257,Valid,H6,75.0,Found,1991,27.68528,4.50333
Acfer 258,Valid,H6,212.0,Found,1991,27.67056,4.34611
Acfer 259,Valid,H3-6,114.0,Found,1991,27.52444,3.87361
Acfer 260,Valid,H5,177.0,Found,1991,27.47556,3.71028
Acfer 261,Valid,L6,73.0,Found,1991,27.70917,4.42083
Acfer 262,Valid,H4,92.0,Found,1991,27.67,4.49722
Acfer 263,Valid,L6,438.0,Found,1991,27.69111,4.3375
Acfer 264,Valid,LL6,243.0,Found,1991,27.69472,4.30639
Acfer 265,Valid,Mesosiderite,83.0,Found,1991,27.715,4.19278
Acfer 266,Valid,L6,518.0,Found,1991,27.72722,4.17056
Acfer 267,Valid,LL5-6,229.0,Found,1991,27.51056,3.71306
Acfer 268,Valid,LL4-6,764.0,Found,1991,27.51389,3.87528
Acfer 269,Valid,LL6,276.0,Found,1991,27.51472,3.86556
Acfer 270,Valid,CR2,298.0,Found,1991,27.51861,3.85722
Acfer 271,Valid,H6,237.0,Found,1991,27.56111,4.05556
Acfer 272,Valid,CV3,63.0,Found,1991,27.57028,4.075
Acfer 273,Valid,H5/6,2110.0,Found,1991,27.62194,4.45556
Acfer 274,Valid,H6,203.0,Found,1991,27.63389,4.18722
Acfer 275,Valid,H5-6,429.0,Found,1991,27.63361,4.17306
Acfer 276,Valid,H5,99.0,Found,1991,27.63972,4.14528
Acfer 277,Valid,Ureilite,41.0,Found,1991,27.63917,4.14278
Acfer 278,Valid,H5,72.0,Found,1991,27.63861,4.12722
Acfer 279,Valid,H5,96.0,Found,1991,27.64278,4.06889
Acfer 280,Valid,L6,177.0,Found,1991,27.53528,3.91278
Acfer 281,Valid,L5,165.0,Found,1991,27.54222,3.88444
Acfer 282,Valid,H6,67.0,Found,1991,27.65444,4.27528
Acfer 283,Valid,H5,187.0,Found,1991,27.70056,4.22944
Acfer 284,Valid,H5,120.0,Found,1991,27.70611,4.20583
Acfer 285,Valid,H4/5,69.0,Found,1991,27.63139,4.10722
Acfer 286,Valid,H6,407.0,Found,1991,27.79472,4.16722
Acfer 287,Valid,E4,59.0,Found,1992,27.61667,4.19056
Acfer 288,Valid,L5,55.0,Found,1992,27.59139,3.98806
Acfer 289,Valid,CR2,76.0,Found,1992,27.47417,3.86417
Acfer 290,Valid,L6,213.0,Found,1992,27.54528,4.04861
Acfer 291,Valid,H6,261.0,Found,1992,27.70806,4.24806
Acfer 292,Valid,H5,432.0,Found,1992,27.71861,4.48611
Acfer 293,Valid,LL6,198.0,Found,1992,27.66583,4.19056
Acfer 294,Valid,H4,457.0,Found,1992,27.64972,4.01194
Acfer 295,Valid,LL6,217.0,Found,1992,27.48333,3.91556
Acfer 296,Valid,LL5-6,121.0,Found,1992,27.58278,4.0
Acfer 297,Valid,L6,43.0,Found,1992,27.63361,4.04139
Acfer 298,Valid,L6,2000.0,Found,1992,27.70917,4.17444
Acfer 299,Valid,LL4,180.0,Found,1992,27.6825,4.42028
Acfer 300,Valid,H6,270.0,Found,1992,27.59028,4.15194
Acfer 301,Valid,H4,162.0,Found,1992,27.52722,3.89806
Acfer 302,Valid,H5,95.0,Found,1992,27.58694,3.96417
Acfer 303,Valid,H5/6,83.0,Found,1992,27.60222,3.98528
Acfer 304,Valid,H6,60.0,Found,1992,27.62361,4.02556
Acfer 305,Valid,L6,369.0,Found,1992,27.68722,4.18361
Acfer 306,Valid,L6,129.0,Found,1992,27.42889,3.82
Acfer 307,Valid,L5,520.0,Found,1992,27.49083,3.89778
Acfer 308,Valid,H5,74.0,Found,1992,27.55972,4.01028
Acfer 309,Valid,L6,185.0,Found,1992,27.64556,4.20444
Acfer 310,Valid,H6,169.0,Found,1992,27.68361,4.25306
Acfer 311,Valid,CR2,120.0,Found,1992,27.50806,3.84417
Acfer 312,Valid,L5,364.0,Found,1992,27.57861,3.96889
Acfer 313,Valid,H5,78.0,Found,1992,27.60056,3.99556
Acfer 314,Valid,H6,169.0,Found,1992,27.66389,4.09806
Acfer 315,Valid,L/LL6,506.0,Found,1992,27.69972,4.18611
Acfer 316,Valid,H6,126.0,Found,1992,27.6875,4.245
Acfer 317,Valid,H5,878.0,Found,1992,27.59278,4.40139
Acfer 318,Valid,H5,292.0,Found,1992,27.55028,3.99806
Acfer 319,Valid,L6,2393.0,Found,1992,27.55194,3.81611
Acfer 320,Valid,H5,167.0,Found,1992,27.46056,3.88806
Acfer 321,Valid,H5,157.0,Found,2001,27.5455,4.06117
Acfer 322,Valid,L5,25.0,Found,2001,27.55917,4.093
Acfer 323,Valid,LL5,117.0,Found,2001,27.503,3.8795
Acfer 324,Valid,CR2,69.0,Found,2001,27.50083,3.86983
Acfer 325,Valid,LL6,32.0,Found,1989,27.5,3.61667
Acfer 326,Valid,L6,139.0,Found,1989,27.5,3.61667
Acfer 327,Valid,H5,745.22,Found,2001,27.73333,4.43333
Acfer 328,Valid,CV3,180.07,Found,2001,27.73333,4.21667
Acfer 329,Valid,L4/5,30000.0,Found,2001,27.58333,4.1
Acfer 330,Valid,L6,490.0,Found,2001,27.65,4.03333
Acfer 331,Valid,CM2,750.0,Found,2001,27.58333,4.01667
Acfer 332,Valid,CO3,115.02,Found,2001,27.73333,4.13333
Acfer 333,Valid,CO3,489.0,Found,2001,27.56667,4.06667
Acfer 334,Valid,L6,211.25,Found,2002,27.65,4.38333
Acfer 335,Valid,H4,261.0,Found,2002,27.73333,4.43333
Acfer 336,Valid,L3.8,19400.0,Found,2002,27.61667,4.06667
Acfer 337,Valid,L3.8,360.0,Found,2002,27.68333,4.26667
Acfer 338,Valid,H6,377.6,Found,2002,27.71667,4.26667
Acfer 339,Valid,H5,400.0,Found,2002,27.55,4.2
Acfer 340,Valid,L5,173.15,Found,2002,27.58333,4.3
Acfer 341,Valid,L3,132.0,Found,2002,27.46667,3.83333
Acfer 342,Valid,L6,1276.0,Found,2002,27.59056,4.66278
Acfer 343,Valid,H3-5,140.0,Found,2002,27.619722,4.265
Acfer 344,Valid,H3,410.0,Found,2002,27.73333,4.19833
Acfer 345,Valid,LL5,53.0,Found,2002,27.46472,3.81417
Acfer 346,Valid,LL6,546.0,Found,2002,27.59056,4.66278
Acfer 347,Valid,L3,1165.0,Found,2001,27.68333,4.3
Acfer 348,Valid,L5,8750.0,Found,2001,27.97933,4.27817
Acfer 349,Valid,H6,298.0,Found,2001,27.84067,4.31433
Acfer 350,Valid,H4,128.0,Found,2001,27.672,4.52633
Acfer 351,Valid,L6,211.0,Found,2001,27.7,4.13333
Acfer 352,Valid,L5,873.0,Found,2001,27.76667,4.01667
Acfer 353,Valid,Eucrite-cm,11935.0,Found,2001,27.48917,3.89
Acfer 354,Valid,LL5,252.0,Found,2001,27.5005,3.88233
Acfer 355,Valid,LL5,161.0,Found,2002,27.58967,3.781
Acfer 356,Valid,EL6,120.0,Found,2002,27.61233,4.5285
Acfer 357,Valid,LL5,62.0,Found,2001,27.50083,4.87467
Acfer 358,Valid,H6,70.0,Found,2002,27.76667,4.41667
Acfer 359,Valid,H6,67.0,Found,2002,27.7,4.48333
Acfer 360,Valid,Ureilite,68.0,Found,2002,27.48333,3.76667
Acfer 361,Valid,H4,138.0,Found,2002,27.42958,3.87135
Acfer 362,Valid,H5,242.8,Found,2002,27.4778,3.70165
Acfer 363,Valid,LL4,389.9,Found,2002,27.58163,4.29388
Acfer 364,Valid,LL6,656.0,Found,2002,27.7,4.51667
Acfer 365,Valid,L5,1456.0,Found,2002,27.60933,3.93567
Acfer 366,Valid,CH3,1456.0,Found,2002,26.60933,3.93567
Acfer 367,Valid,H5,410.0,Found,2002,27.68433,4.42917
Acfer 368,Valid,H4,126.0,Found,2002,27.68883,4.386
Acfer 369,Valid,H4,122.0,Found,2002,27.667,4.64833
Acfer 370,Valid,Chondrite-ung,129.0,Found,2002,27.6725,4.35667
Acfer 371,Valid,L5,9608.0,Found,2002,27.67817,4.46533
Acfer 372,Valid,LL6,238.0,Found,2002,26.61167,3.887
Acfer 373,Valid,H5,128.0,Found,2002,26.62583,3.94433
Acfer 374,Valid,CO3,118.0,Found,2002,26.60867,4.053
Acfer 375,Valid,LL6,495.0,Found,2002,27.5085,3.76383
Acfer 376,Valid,H6,132.0,Found,2002,27.6395,3.935
Acfer 377,Valid,L4,132.0,Found,2002,27.6625,3.97683
Acfer 378,Valid,LL6,1320.0,Found,2003,27.4,3.75
Acfer 379,Valid,H4,14764.0,Found,2004,27.4114,3.70467
Acfer 380,Valid,H5,849.0,Found,2002,27.76667,4.41667
Acfer 381,Valid,L6,292.0,Found,2002,27.7,4.45
Acfer 382,Valid,H5,101.0,Found,2002,27.63333,3.93333
Acfer 386,Valid,L5,200.0,Found,2004,27.36017,3.7
Acfer 387,Valid,H4-6,177.0,Found,2004,27.558,4.015
Acfer 388,Valid,H4,1072.0,Found,2004,27.61667,3.86667
Acfer 389,Valid,H5,397.0,Found,2004,27.504,3.68167
Acfer 390,Valid,H4,578.0,Found,2004,27.5025,3.693
Acfer 391,Valid,H4,388.0,Found,2004,27.59617,4.172
Acfer 392,Valid,H~5,74.0,Found,1997,27.51667,3.86667
Acfer 393,Valid,H~6,74.0,Found,1997,27.58333,4.03333
Acfer 394,Valid,CR2,364.0,Found,2001,27.51867,3.88033
Acfer 395,Valid,CR2,394.0,Found,2001,27.50917,3.88767
Acfer 396,Valid,CR2,148.0,Found,2001,27.512,3.89783
Acfer 397,Valid,CR2,105.0,Found,2001,27.509,3.89583
Acfer 398,Valid,CR2,97.0,Found,2001,27.50217,3.86083
Acfer 399,Valid,CR2,89.0,Found,2001,27.50267,3.8725
Acfer 400,Valid,CR2,101.0,Found,2001,27.50083,3.86617
Acfer 401,Valid,L5,9.0,Found,2002,27.68917,4.44267
Achilles,Valid,H5,16000.0,Found,1924,39.77667,-100.81333
Ackerly,Valid,L5,3046.0,Found,1995,32.59033,-101.77217
Acme,Valid,H5,75000.0,Found,1947,33.63333,-104.26667
Acomita,Valid,"Pallasite, PMG",3956.0,Found,1962,35.05,-107.56667
Acuña,Valid,"Iron, IIIAB",217700.0,Found,1981,29.31667,-100.96667
Adalia,Valid,Eucrite-mmict,1.0,Found,1883,36.9,30.68333
Adam Talha,Valid,LL3.2,259.3,Found,2005,22.9935,-10.15367
Adams County,Valid,H5,5700.0,Found,1928,39.96667,-103.76667
ad-Dahbubah,Valid,H5,90000.0,Found,1961,19.83333,51.25
Adelie Land,Valid,L5,1000.0,Found,1912,-67.18333,142.38333
Admire,Valid,"Pallasite, PMG",180000.0,Found,1881,38.7,-96.1
Adrar 001,Valid,H4/5,1917.0,Found,1990,28.05,0.16667
Adrar 002,Valid,L5,407.0,Found,1990,27.81667,0.13333
Adrar 003,Valid,L/LL3.10,287.0,Found,1990,27.13333,0.2
Adrar Bous,Valid,EL5,360.0,Found,2001,20.5,9.0
Adrar Chiriet,Valid,L6,926.0,Found,2003,19.64008,9.35545
Adrar Madet,Valid,H5/6,1113.0,Found,1997,18.5,10.4
Adrar Madet 002,Valid,LL3,2200.0,Found,2002,18.61042,10.4941
Adrar Yaouelt,Valid,H5,2730.0,Found,2002,17.67987,10.03503
Adrian,Valid,H4,22600.0,Found,1936,35.15,-102.71667
Adzhi-Bogdo (iron),Valid,"Iron, IAB complex",582000.0,Found,1952,44.86667,95.41667
Aggie Creek,Valid,"Iron, IIIAB",43000.0,Found,1942,64.88333,-163.16667
Agoudal,Valid,"Iron, IIAB",100000.0,Found,2000,31.98457,-5.51528
Agoult,Valid,Eucrite,82.0,Found,2000,30.55,-4.9
Agua Blanca,Valid,"Iron, IIIAB",49000.0,Found,1938,-28.91667,-66.95
Aguas Calientes,Valid,H,260.1,Found,1971,-25.5,-68.4
Aguemour 001,Valid,H5,896.0,Found,1990,26.96667,4.45
Aguemour 002,Valid,L6,236.0,Found,1990,26.96667,4.4
Aguemour 003,Valid,L6,809.0,Found,1990,27.36667,4.5
Aguemour 004,Valid,H5,1137.0,Found,1990,27.33333,4.5
Aguemour 005,Valid,H5,859.0,Found,1991,27.43583,4.63861
Aguemour 006,Valid,L6,435.0,Found,1992,27.57639,4.52528
Aguemour 007,Valid,H4,334.0,Found,1992,27.50778,4.60167
Aguemour 008,Valid,L4,79.0,Found,1992,27.47889,4.19806
Aguemour 009,Valid,L3.8,1446.0,Found,1992,27.42861,4.12417
Aguemour 010,Valid,H5,367.0,Found,1993,27.36056,4.94472
Aguemour 011,Valid,H4,207.0,Found,1993,27.35028,4.2025
Aguemour 012,Valid,H5,347.0,Found,1993,27.5175,4.19111
Aguemour 013,Valid,L5,364.0,Found,1993,27.56972,4.52556
Aguemour 014,Valid,L5,167.0,Found,1993,27.57806,4.3225
Aguemour 015,Valid,L4,1106.0,Found,1993,27.50972,4.16111
Aguemour 016,Valid,L5,177.0,Found,1993,27.59167,4.31694
Aguemour 017,Valid,L6,1000.0,Found,2001,27.4,4.35
Ahumada,Valid,"Pallasite, PMG",52600.0,Found,1909,30.7,-105.5
Aiken,Valid,OC,956.0,Found,1936,34.2,-101.5
Ainsworth,Valid,"Iron, IIAB",80650.0,Found,1907,42.6,-99.8
Akhricha,Valid,H,1760.0,Found,1968,28.4625,1.025
Akmolla,Valid,H4,114.0,Found,1988,39.53833,59.55833
Akron (1940),Valid,H6,1050.0,Found,1940,40.15,-103.16667
Akron (1961),Valid,L6,4000.0,Found,1961,40.15,-103.16667
Al Alamayn,Valid,H5,13.31,Found,2005,30.70952,28.9698
Al Haggounia 001,Valid,Aubrite,3000000.0,Found,2006,27.5,-12.5
Al Huqf 001,Valid,L4,41.5,Found,2000,19.42,57.18833
Al Huqf 002,Valid,H5,81.4,Found,2000,19.27167,57.38667
Al Huqf 003,Valid,L4,115.42,Found,2002,19.50695,57.11952
Al Huqf 004,Valid,L5,260.22,Found,2002,19.54482,57.09807
Al Huqf 005,Valid,L6,763.29,Found,2002,19.84057,57.00848
Al Huqf 006,Valid,L6,1861.21,Found,2002,19.84067,57.00842
Al Huqf 007,Valid,L5,1042.7,Found,2002,19.84128,57.00953
Al Huqf 008,Valid,L6,1074.3,Found,2002,19.84203,57.00747
Al Huqf 009,Valid,H4,39.83,Found,2002,19.8423,57.00013
Al Huqf 010,Valid,L6,41539.3,Found,2002,19.86785,57.0028
Al Huqf 011,Valid,L6,8056.0,Found,2002,19.86607,57.0032
Al Huqf 012,Valid,L6,402.75,Found,2003,19.80252,57.32137
Al Huqf 050,Valid,H4,1066.2,Found,2002,19.60308,57.03332
Al Huqf 051,Valid,L6,402.75,Found,2003,19.80252,57.32137
Al Huqf 052,Valid,H~5,1319.4,Found,2001,19.65675,57.0433
Al Huqf 053,Valid,H~5,854.7,Found,2001,19.61287,57.27038
Al Huqf 054,Valid,L~6,2936.5,Found,2001,19.61612,57.2698
Al Huqf 055,Valid,H4,1865.6,Found,2001,19.64073,57.28857
Al Huqf 056,Valid,H5,124.0,Found,2001,19.66453,57.3334
Al Huqf 057,Valid,H5,105.3,Found,2001,19.53112,57.08427
Al Huqf 058,Valid,L~6,97.7,Found,2001,19.3421,57.1693
Al Huqf 059,Valid,L~3,362.7,Found,2001,19.31468,57.27343
Al Huqf 060,Valid,L~6,913.1,Found,2001,19.40518,57.26818
Al Huqf 062,Valid,H~4,50.7,Found,2001,19.40772,57.29878
Al Huqf 063,Valid,L6,591.8,Found,2006,19.44533,57.02345
Al Huqf 064,Valid,H4,12834.0,Found,2002,19.40412,57.27497
Al Huqf 065,Valid,L6,2084.16,Found,2007,19.32092,57.22977
Al Huqf 066,Valid,L4,150.057,Found,2007,19.51053,57.1292
Al Huqf 067,Valid,H4,61.6,Found,2009,19.22597,57.54063
Al Huqf 068,Valid,L3,165.4,Found,2009,19.14025,57.58427
Al Huqf 069,Valid,H4/5,250.5,Found,2009,19.26795,57.13412
Al Huqf 070,Valid,L4,2632.8,Found,2009,19.18798,57.10978
Al Huwaysah 001,Valid,LL6,3150.5,Found,2009,22.80487,55.32742
Al Huwaysah 002,Valid,LL6,690.5,Found,2009,22.79853,55.31673
Al Huwaysah 003,Valid,L4-6,273.05,Found,2010,22.74862,55.37323
Al Huwaysah 004,Valid,H5,141.51,Found,2010,22.74733,55.39522
Al Huwaysah 005,Valid,L(LL)3.5-3.7,1228.1,Found,2010,22.73342,55.33122
Al Huwaysah 006,Valid,L6,16.41,Found,2010,22.73743,55.3191
Al Huwaysah 007,Valid,L6,1.56,Found,2010,22.73393,55.3204
Al Huwaysah 008,Valid,H4,356.2,Found,2010,22.73797,55.32125
Al Huwaysah 009,Valid,H6,3407.8,Found,2010,22.75747,55.41402
Al Huwaysah 010,Valid,Achondrite-ung,1411.8,Found,2010,22.74868,55.47218
Al Huwaysah 011,Valid,L4-5,112.76,Found,2010,22.75978,55.3908
Al Huwaysah 012,Valid,H5,4694.9,Found,2010,22.67752,55.34027
Al Huwaysah 013,Valid,H6,55.51,Found,2010,22.68423,55.33652
Al Huwaysah 014,Valid,H6,45.52,Found,2010,22.68598,55.32092
Al Huwaysah 015,Valid,H6,35.3,Found,2010,22.68922,55.32087
Al Huwaysah 016,Valid,H5,1330.9,Found,2010,22.69813,55.3336
Al Huwaysah 017,Valid,L6,439.58,Found,2010,22.73852,55.36247
Alaer 001,Valid,LL5,1.7,Found,2007,40.33333,81.25
Alaer 002,Valid,LL5,1.1,Found,2007,40.33333,81.25
Alamogordo,Valid,H5,13600.0,Found,1938,32.9,-105.93333
Alamosa,Valid,L6,1800.0,Found,1937,37.46667,-105.86667
Alatage,Valid,"Iron, IIIAB",37500.0,Found,1959,42.33333,93.0
Albin (pallasite),Valid,"Pallasite, PMG",37600.0,Found,1915,41.5,-104.1
Albin (stone),Valid,L,15400.0,Found,1949,41.41667,-104.1
Albion,Valid,"Iron, IVA",12280.0,Found,1966,46.83333,-117.25
Aldama (a),Valid,"Iron, IIIAB",11000.0,Found,1985,28.83333,-105.86667
Aldama (b),Valid,H5,66.5,Found,1996,25.05,-106.0
Alexander County,Valid,"Iron, IAB complex",192.0,Found,1875,35.75,-81.25
Algarrobo,Valid,"Iron, IAB-ung",1280.0,Found,1959,-27.08333,-70.58333
al-Ghanim (iron),Valid,"Iron, IIIAB",500.0,Found,1960,19.83333,54.08333
al-Ghanim (stone),Valid,L6,3755.0,Found,1960,19.7,53.96667
Algoma,Valid,"Iron, IAB-sHL",4100.0,Found,1887,44.65,-87.46667
Alikatnima,Valid,"Iron, ungrouped",20000.0,Found,1931,-23.33333,134.11667
Aliskerovo,Valid,"Iron, IIIE-an",58400.0,Found,1977,67.88333,167.5
al-Jimshan,Valid,H4,11450.0,Found,1955,20.7,52.83333
Alkali,Valid,H6,30.47,Found,1998,37.86667,-117.4
Alkali Flat,Valid,L5,28.0,Found,2011,32.306,-108.9038
Alkhamasin,Valid,"Iron, IIAB",1200000.0,Found,1973,20.6,44.88333
Allan Hills 06001,Valid,H5,128.1,Found,2006,-76.71695,158.76862
Allan Hills 06002,Valid,H~5,119.2,Found,2006,-76.74253,158.84305
Allan Hills 06003,Valid,H~5,25.0,Found,2006,-76.71128,158.79283
Allan Hills 06004,Valid,H~5,61.7,Found,2006,-76.70522,158.77838
Allan Hills 06005,Valid,H~5,6.0,Found,2006,-76.70522,158.77838
Allan Hills 06006,Valid,H~5,280.9,Found,2006,-76.70558,158.77587
Allan Hills 06007,Valid,H5,226.3,Found,2006,-76.70552,158.77583
Allan Hills 06008,Valid,H~5,120.0,Found,2006,-76.70552,158.77485
Allan Hills 06009,Valid,H~5,28.6,Found,2006,-76.71215,158.77527
Allan Hills 06010,Valid,H~5,1.08,Found,2006,-76.71263,158.77862
Allan Hills 06011,Valid,H~5,24.3,Found,2006,-76.71255,158.7786
Allan Hills 06012,Valid,H5,91.0,Found,2006,-76.71733,158.77398
Allan Hills 09001,Valid,L5/6,0.5,Found,2009,-76.74403,159.37238
Allan Hills 09002,Valid,L6,71.6,Found,2009,-76.74245,159.37458
Allan Hills 09003,Valid,L6,15.5,Found,2009,-76.74245,159.37458
Allan Hills 09004,Valid,Howardite,221.7,Found,2009,0.0,0.0
Allan Hills 09005,Valid,L5,122.3,Found,2009,0.0,0.0
Allan Hills 09006,Valid,H5,104.3,Found,2009,0.0,0.0
Allan Hills 09008,Valid,H5,31.3,Found,2009,0.0,0.0
Allan Hills 09009,Valid,L6,24.8,Found,2009,0.0,0.0
Allan Hills 09010,Valid,L3.4,2.6,Found,2009,0.0,0.0
Allan Hills 09011,Valid,LL6,14.2,Found,2009,0.0,0.0
Allan Hills 09012,Valid,L6,18.1,Found,2009,0.0,0.0
Allan Hills 09013,Valid,L6,25.5,Found,2009,0.0,0.0
Allan Hills 09014,Valid,L5,30.2,Found,2009,0.0,0.0
Allan Hills 10910,Valid,L5,444.1,Found,2010,0.0,0.0
Allan Hills 10911,Valid,L6,218.9,Found,2010,0.0,0.0
Allan Hills 10912,Valid,H6,60.3,Found,2010,0.0,0.0
Allan Hills 82100,Valid,CM2,24.3,Found,1982,-76.97691,156.93841
Allan Hills 82101,Valid,CO3.4,29.1,Found,1982,-76.88426,156.93086
Allan Hills 82102,Valid,H5,48.1,Found,1982,-77.04666,157.24407
Allan Hills 82103,Valid,H5,2529.2,Found,1982,-76.89661,156.99137
Allan Hills 82104,Valid,L5,398.8,Found,1982,-77.05074,157.19834
Allan Hills 82105,Valid,L6,363.3,Found,1982,-77.04867,157.18333
Allan Hills 82106,Valid,Ureilite,35.1,Found,1982,-77.03788,157.2516
Allan Hills 82107,Valid,L5,9.2,Found,1982,-76.97697,156.91541
Allan Hills 82108,Valid,H5,13.5,Found,1982,-76.96353,156.9203
Allan Hills 82109,Valid,H5,47.2,Found,1982,-77.02778,157.03028
Allan Hills 82110,Valid,H3.6,39.3,Found,1982,-77.03342,157.25235
Allan Hills 82111,Valid,L6,63.0,Found,1982,-76.91278,156.97551
Allan Hills 82112,Valid,H5,28.3,Found,1982,-76.96674,156.91777
Allan Hills 82113,Valid,H6,61.2,Found,1982,-76.97126,156.90291
Allan Hills 82114,Valid,H5,40.7,Found,1982,-77.03648,157.23968
Allan Hills 82115,Valid,H5,48.5,Found,1982,-76.97442,156.90877
Allan Hills 82116,Valid,H6,18.4,Found,1982,-77.03694,157.04639
Allan Hills 82117,Valid,L5,4.2,Found,1982,-77.04025,157.2305
Allan Hills 82118,Valid,L6,110.9,Found,1982,-77.04408,157.2676
Allan Hills 82119,Valid,H5,23.9,Found,1982,-76.9791,156.92267
Allan Hills 82120,Valid,H5,7.2,Found,1982,-76.90581,157.00988
Allan Hills 82121,Valid,L6,2.4,Found,1982,-77.03722,157.23658
Allan Hills 82122,Valid,H5,142.0,Found,1982,-76.98507,156.90009
Allan Hills 82123,Valid,L6,110.8,Found,1982,-76.94677,156.92971
Allan Hills 82124,Valid,H6,25.8,Found,1982,-77.03811,157.24166
Allan Hills 82125,Valid,L6,178.4,Found,1982,-76.98262,156.90998
Allan Hills 82126,Valid,H4,139.9,Found,1982,-76.90692,157.0235
Allan Hills 82127,Valid,H6,5.1,Found,1982,-76.96966,156.90165
Allan Hills 82128,Valid,H4,15.2,Found,1982,-76.96339,156.91969
Allan Hills 82129,Valid,H5,14.1,Found,1982,-76.97495,156.91895
Allan Hills 82130,Valid,Ureilite,44.6,Found,1982,-77.04237,157.25116
Allan Hills 82131,Valid,CM2,1.0,Found,1982,-76.88366,156.92815
Allan Hills 82132,Valid,EH4,5.9,Found,1982,-76.97583,156.94856
Allan Hills 82133,Valid,H4,19.7,Found,1982,-76.90256,157.02793
Allan Hills 82134,Valid,H5,28.2,Found,1982,-76.88761,156.93792
Allan Hills 82135,Valid,CK4,12.1,Found,1982,-76.91276,156.97559
Allan Hills 82136,Valid,H4,4.3,Found,1982,-76.90694,157.02548
Allan Hills 82137,Valid,L5,10.8,Found,1982,-77.02778,157.02833
Allan Hills 82138,Valid,H6,5.0,Found,1982,-76.97795,156.92687
Allan Hills 82139,Valid,L6,0.2,Found,1982,-77.05047,157.25814
Allan Hills 82140,Valid,L6,0.3,Found,1982,-77.04673,157.28252
Allan Hills 82141,Valid,H5,0.6,Found,1982,-77.03743,157.23679
Allan Hills 82142,Valid,L6,20.0,Found,1982,-76.89166,156.96457
Allan Hills 82143,Valid,H6,3.5,Found,1982,-76.92489,156.93821
Allan Hills 82144,Valid,H5,7.3,Found,1982,-77.04713,157.28227
Allan Hills 83001,Valid,L4,1568.6,Found,1983,-76.72109,158.73715
Allan Hills 83002,Valid,L5,367.1,Found,1983,-76.71158,158.77453
Allan Hills 83003,Valid,H5,321.8,Found,1983,-76.71111,159.42472
Allan Hills 83004,Valid,L6,813.9,Found,1983,-76.81849,158.15713
Allan Hills 83005,Valid,H5,227.9,Found,1983,-76.74472,159.40472
Allan Hills 83006,Valid,H5,230.2,Found,1983,-76.7188,158.77155
Allan Hills 83007,Valid,LL3.4,285.0,Found,1983,-76.76806,159.33944
Allan Hills 83008,Valid,L3.4-3.7,272.0,Found,1983,-76.69167,159.37306
Allan Hills 83009,Valid,Aubrite,1.7,Found,1983,-76.82204,158.20666
Allan Hills 83010,Valid,LL3.3,395.2,Found,1983,-76.76991,158.1405
Allan Hills 83011,Valid,L5,213.3,Found,1983,-76.69389,159.3875
Allan Hills 83012,Valid,H5,202.7,Found,1983,-76.71356,158.77754
Allan Hills 83013,Valid,H6,246.3,Found,1983,-76.75889,159.34611
Allan Hills 83014,Valid,Ureilite,1.3,Found,1983,-76.82229,158.23233
Allan Hills 83015,Valid,Aubrite,3.1,Found,1983,-76.82221,158.21305
Allan Hills 83016,Valid,CM2,4.1,Found,1983,-76.82256,158.20601
Allan Hills 83017,Valid,L3.5,0.6,Found,1983,-76.82235,158.20609
Allan Hills 83018,Valid,EL6,3.7,Found,1983,-76.82236,158.24213
Allan Hills 83019,Valid,H4,2.6,Found,1983,-76.82229,158.24188
Allan Hills 83020,Valid,H5,2.9,Found,1983,-76.81315,158.06767
Allan Hills 83021,Valid,L6,42.4,Found,1983,-76.69694,159.39028
Allan Hills 83022,Valid,LL6,5.4,Found,1983,-76.81791,158.19091
Allan Hills 83023,Valid,L4,4.2,Found,1983,-76.82248,158.20557
Allan Hills 83024,Valid,H6,6.2,Found,1983,-76.82106,158.21255
Allan Hills 83025,Valid,H5,77.8,Found,1983,-76.69139,159.3825
Allan Hills 83026,Valid,CO3,0.1,Found,1983,-76.82234,158.21493
Allan Hills 83027,Valid,L6,2.7,Found,1983,-76.82234,158.215
Allan Hills 83028,Valid,H6,16.0,Found,1983,-76.72278,159.36972
Allan Hills 83029,Valid,H5,96.2,Found,1983,-76.8243,158.22801
Allan Hills 83030,Valid,H5,48.7,Found,1983,-76.69111,159.38444
Allan Hills 83031,Valid,H5,10.4,Found,1983,-76.69361,159.39167
Allan Hills 83032,Valid,LL6,2.9,Found,1983,-76.82214,158.23429
Allan Hills 83033,Valid,L6,20.7,Found,1983,-76.69167,159.38472
Allan Hills 83034,Valid,H5,6.5,Found,1983,-76.69944,159.39056
Allan Hills 83035,Valid,H5,1.2,Found,1983,-76.82228,158.21366
Allan Hills 83036,Valid,H5,24.3,Found,1983,-76.69639,159.39556
Allan Hills 83037,Valid,H5,2.5,Found,1983,-76.82235,158.21503
Allan Hills 83038,Valid,L3.8,86.5,Found,1983,-76.71769,159.36411
Allan Hills 83039,Valid,H5,6.3,Found,1983,-76.69806,159.3975
Allan Hills 83040,Valid,H5,77.9,Found,1983,-76.69083,159.37139
Allan Hills 83041,Valid,L6,0.3,Found,1983,-76.82236,158.21482
Allan Hills 83042,Valid,H3.6,0.5,Found,1983,-76.81765,158.19001
Allan Hills 83043,Valid,L6,2.7,Found,1983,-76.82199,158.21505
Allan Hills 83044,Valid,H5,4.8,Found,1983,-76.82133,158.17741
Allan Hills 83045,Valid,L5,1.6,Found,1983,-76.82268,158.21812
Allan Hills 83046,Valid,H5,32.9,Found,1983,-76.82584,158.22437
Allan Hills 83047,Valid,H5,20.0,Found,1983,-76.69917,159.39861
Allan Hills 83048,Valid,L5,2.3,Found,1983,-76.69694,159.39695
Allan Hills 83049,Valid,H5,6.1,Found,1983,-76.69167,159.38528
Allan Hills 83050,Valid,H6,9.7,Found,1983,-76.69389,159.3875
Allan Hills 83051,Valid,H5,16.5,Found,1983,-76.71667,159.66667
Allan Hills 83052,Valid,L6,52.8,Found,1983,-76.82326,158.21348
Allan Hills 83053,Valid,H5,63.2,Found,1983,-76.71838,158.76949
Allan Hills 83054,Valid,LL6,16.8,Found,1983,-76.82277,158.21888
Allan Hills 83055,Valid,H5,18.4,Found,1983,-76.69889,159.39833
Allan Hills 83056,Valid,H5,1.4,Found,1983,-76.82197,158.21415
Allan Hills 83057,Valid,H5,62.9,Found,1983,-76.69389,159.38945
Allan Hills 83058,Valid,L6,29.2,Found,1983,-76.80682,158.03566
Allan Hills 83059,Valid,H5,3.5,Found,1983,-76.82193,158.21327
Allan Hills 83060,Valid,H5,8.8,Found,1983,-76.74,159.38167
Allan Hills 83061,Valid,H5,33.6,Found,1983,-76.71602,158.73123
Allan Hills 83062,Valid,H5,76.9,Found,1983,-76.71893,158.771
Allan Hills 83063,Valid,L6,16.9,Found,1983,-76.77111,159.2875
Allan Hills 83064,Valid,H5,12.4,Found,1983,-76.72038,158.76546
Allan Hills 83065,Valid,H5,53.6,Found,1983,-76.71088,158.78134
Allan Hills 83066,Valid,H5,45.9,Found,1983,-76.71951,158.76862
Allan Hills 83067,Valid,L6,95.8,Found,1983,-76.74194,159.38083
Allan Hills 83068,Valid,H5,0.8,Found,1983,-76.81435,158.13615
Allan Hills 83069,Valid,L5,78.2,Found,1983,-76.69944,159.12306
Allan Hills 83070,Valid,LL6,215.7,Found,1983,-76.82202,158.13059
Allan Hills 83071,Valid,H6,4.9,Found,1983,-76.69917,159.39861
Allan Hills 83072,Valid,H5,1.6,Found,1983,-76.8128,158.11533
Allan Hills 83073,Valid,H5,49.2,Found,1983,-76.71424,158.80149
Allan Hills 83074,Valid,H5,6.4,Found,1983,-76.77046,158.15787
Allan Hills 83100,Valid,CM1/2,3019.0,Found,1983,-76.71667,159.66667
Allan Hills 83101,Valid,L6,639.2,Found,1983,-76.98533,156.87608
Allan Hills 83102,Valid,CM2,1786.2,Found,1983,-77.04164,157.15458
Allan Hills 83103,Valid,H6,51.8,Found,1983,-76.96968,156.9094
Allan Hills 83104,Valid,H5,2.1,Found,1983,-76.96391,156.90554
Allan Hills 83105,Valid,L6,0.7,Found,1983,-77.04139,157.05861
Allan Hills 83106,Valid,CM2,22.3,Found,1983,-76.96393,156.90753
Allan Hills 83107,Valid,H5,38.4,Found,1983,-76.987,156.87283
Allan Hills 83108,Valid,CO3.5,1519.4,Found,1983,-77.04639,157.07722
Allan Hills 84001,Valid,Martian (OPX),1930.9,Found,1984,-76.92031,156.77355
Allan Hills 84002,Valid,L6,7554.0,Found,1984,-76.74254,158.82886
Allan Hills 84003,Valid,H5,3088.7,Found,1984,-76.73217,158.6696
Allan Hills 84004,Valid,H4,9000.0,Found,1984,-76.73156,158.67942
Allan Hills 84005,Valid,L5,12000.0,Found,1984,-76.89102,156.89321
Allan Hills 84006,Valid,H4/5,16000.0,Found,1984,-76.76228,158.77438
Allan Hills 84007,Valid,Aubrite,705.6,Found,1984,-76.87783,158.50193
Bouri,Valid,H4,9100.0,Found,1996,10.26667,40.56667
Allan Hills 84008,Valid,Aubrite,301.6,Found,1984,-76.88238,158.57931
Allan Hills 84009,Valid,Aubrite,335.6,Found,1984,-76.86569,158.52417
Allan Hills 84010,Valid,Aubrite,303.0,Found,1984,-76.88572,158.61378
Allan Hills 84011,Valid,Aubrite,138.2,Found,1984,-76.87851,158.61831
Allan Hills 84012,Valid,Aubrite,224.7,Found,1984,-76.88304,158.53214
Allan Hills 84013,Valid,Aubrite,159.9,Found,1984,-76.8982,158.59203
Allan Hills 84014,Valid,Aubrite,49.4,Found,1984,-76.88435,158.67508
Allan Hills 84015,Valid,Aubrite,263.9,Found,1984,-76.88495,158.60279
Allan Hills 84016,Valid,Aubrite,149.7,Found,1984,-76.88429,158.58777
Allan Hills 84017,Valid,Aubrite,79.8,Found,1984,-76.88322,158.662
Allan Hills 84018,Valid,Aubrite,81.7,Found,1984,-76.86224,158.51818
Allan Hills 84019,Valid,Aubrite,93.2,Found,1984,-76.84714,158.50969
Allan Hills 84020,Valid,Aubrite,191.1,Found,1984,-76.86997,158.53785
Allan Hills 84021,Valid,Aubrite,35.7,Found,1984,-76.85453,158.50622
Allan Hills 84022,Valid,Aubrite,12.5,Found,1984,-76.77022,158.80784
Allan Hills 84023,Valid,Aubrite,262.4,Found,1984,-76.89846,158.58451
Allan Hills 84024,Valid,Aubrite,194.4,Found,1984,-76.872,158.54311
Allan Hills 84025,Valid,Brachinite,4.6,Found,1984,-77.02267,157.02695
Allan Hills 84027,Valid,LL7(?),8.0,Found,1984,-76.90111,156.78436
Allan Hills 84028,Valid,CV3,735.9,Found,1984,-76.77066,158.8921
Allan Hills 84029,Valid,CM2,119.8,Found,1984,-77.04239,157.07331
Allan Hills 84030,Valid,CM2,6.2,Found,1984,-77.04114,157.08925
Allan Hills 84031,Valid,CM2,12.5,Found,1984,-77.03891,157.07356
Allan Hills 84032,Valid,CM2,7.9,Found,1984,-77.0394,157.07168
Allan Hills 84033,Valid,CM2,60.4,Found,1984,-76.74378,158.8388
Allan Hills 84034,Valid,CM2,44.1,Found,1984,-77.03948,157.0721
Allan Hills 84035,Valid,CM2,3.2,Found,1984,-76.99221,156.97646
Allan Hills 84036,Valid,CM2,2.8,Found,1984,-76.89532,156.83534
Allan Hills 84037,Valid,CV3,3.0,Found,1984,-76.97931,156.96098
Allan Hills 84038,Valid,CK4,12.3,Found,1984,-76.88906,157.05112
Allan Hills 84039,Valid,CM2,32.8,Found,1984,-76.89316,156.95714
Allan Hills 84040,Valid,CM2,28.7,Found,1984,-77.0397,157.0719
Allan Hills 84041,Valid,CM2,1.3,Found,1984,-76.99528,156.97546
Allan Hills 84042,Valid,CM2,51.3,Found,1984,-77.04288,157.07299
Allan Hills 84043,Valid,CM2,16.8,Found,1984,-77.03954,157.07239
Allan Hills 84044,Valid,CM2,147.4,Found,1984,-77.04295,157.07145
Allan Hills 84045,Valid,CM2,11.4,Found,1984,-77.03943,157.07162
Allan Hills 84046,Valid,CM2,1.5,Found,1984,-76.97908,156.96165
Allan Hills 84047,Valid,CM2,4.4,Found,1984,-77.03953,157.07168
Allan Hills 84048,Valid,CM2,12.6,Found,1984,-77.03936,157.07256
Allan Hills 84049,Valid,CM2,29.4,Found,1984,-77.03955,157.07117
Allan Hills 84050,Valid,CM2,3.2,Found,1984,-77.01641,156.97949
Allan Hills 84051,Valid,CM2,34.3,Found,1984,-77.03939,157.07174
Allan Hills 84052,Valid,LL6,10.5,Found,1984,-76.95067,156.93497
Allan Hills 84053,Valid,CM2,5.2,Found,1984,-77.02037,157.00819
Allan Hills 84054,Valid,CM2,19.4,Found,1984,-76.7406,158.81318
Allan Hills 84055,Valid,H5,6900.5,Found,1984,-76.72944,158.74157
Allan Hills 84056,Valid,L6,2140.3,Found,1984,-76.71667,159.66667
Allan Hills 84057,Valid,L6,368.2,Found,1984,-76.83592,158.25518
Allan Hills 84058,Valid,L6,2002.5,Found,1984,-77.02175,156.99984
Allan Hills 84059,Valid,H4,856.9,Found,1984,-76.76988,158.80378
Allan Hills 84060,Valid,H5,338.9,Found,1984,-76.89371,156.98032
Allan Hills 84061,Valid,L6,676.4,Found,1984,-76.99289,156.95507
Allan Hills 84062,Valid,L6,958.2,Found,1984,-76.92062,156.8752
Allan Hills 84063,Valid,L5,759.6,Found,1984,-76.98268,156.9338
